stop_id,stop_name,stop_desc,stop_lat,stop_lon,location_type,parent_station,wheelchair_boarding,zone_id
10_HLW_METRO_N,Helwan,,29.84920761,31.33442665,0,10_HLW_METRO,,10_HLW_METRO
10_AHL_METRO_N,Ain Helwan,,29.86260731,31.32507418,0,10_AHL_METRO,,10_AHL_METRO
10_UHL_METRO_N,Helwan University,,29.8694605,31.32009459,0,10_UHL_METRO,,10_UHL_METRO
14_HOF_METRO_N,Wadi Hof,,29.8790919,31.31362518,0,14_HOF_METRO,,14_HOF_METRO
14_HHL_METRO_N,Hadayek Helwan,,29.89720264,31.30409622,0,14_HHL_METRO,,14_HHL_METRO
7_MAA_METRO_N,El-Maasara,,29.90639448,31.29966403,0,7_MAA_METRO,,7_MAA_METRO
27_TAS_METRO_N,Tora El-Asmant,,29.92598323,31.28763122,0,27_TAS_METRO,,27_TAS_METRO
26_KZK_METRO_N,Kozzika,,29.93647579,31.28153533,0,26_KZK_METRO,,26_KZK_METRO
28_TBA_METRO_N,Tora El-Balad,,29.94676442,31.27292144,0,28_TBA_METRO,,28_TBA_METRO
23_SMA_METRO_N,Sakanat El-Maadi,,29.95332048,31.26299153,0,23_SMA_METRO,,23_SMA_METRO
23_MAD_METRO_N,Maadi,,29.96031039,31.25776048,0,23_MAD_METRO,,23_MAD_METRO
246_HMA_METRO_N,Hadayek El-Maadi,,29.96981609,31.25089933,0,246_HMA_METRO,,246_HMA_METRO
246_DAR_METRO_N,Dar El-Salam,,29.9820971,31.24221305,0,246_DAR_METRO,,246_DAR_METRO
31_ZAH_Metro_N,El-Zahraa,,29.99556482,31.23127386,0,31_ZAH_Metro,,31_ZAH_Metro
34_MGR_METRO_N,Mar Girgis,,30.00616736,31.22960238,0,34_MGR_METRO,,34_MGR_METRO
32_MSH_Metro_N,El-Malek El-Saleh,,30.01770194,31.23123633,0,32_MSH_Metro,,32_MSH_Metro
47_ZEI_Metro_N,Al-Sayeda Zeinab,,30.02921475,31.23546588,0,47_ZEI_Metro,,47_ZEI_Metro
52_SZA_Metro_N,Saad Zaghloul,,30.03565377,31.23786695,0,52_SZA_Metro,,52_SZA_Metro
86_SAD_METRO_N,Sadat,,30.04396612,31.23570572,0,86_SAD_METRO,,86_SAD_METRO
87_NAS_METRO_N,Nasser,,30.05341105,31.23867029,0,87_NAS_METRO,,87_NAS_METRO
98_ORA_METRO_N,Orabi,,30.05699518,31.2423492,0,98_ORA_METRO,,98_ORA_METRO
100_SHO_METRO_N,Al-Shohadaa,,30.06163844,31.24628067,0,100_SHO_METRO,,100_SHO_METRO
137_GHM_METRO_N,Ghamra,,30.06893979,31.26466883,0,137_GHM_METRO,,137_GHM_METRO
159_DMD_METRO_N,El-Demerdash,,30.07724739,31.27782834,0,159_DMD_METRO,,159_DMD_METRO
160_MSD_METRO_N,Manshiet El-Sadr,,30.08195828,31.28756314,0,160_MSD_METRO,,160_MSD_METRO
180_KQO_METRO_N,Kobri El-Qobba,,30.08717765,31.29411903,0,180_KQO_METRO,,180_KQO_METRO
180_HQO_METRO_N,Hammamat El-Qobba,,30.09117443,31.29902968,0,180_HQO_METRO,,180_HQO_METRO
180_SQO_METRO_N,Saray El-Qobba,,30.09769402,31.30449448,0,180_SQO_METRO,,180_SQO_METRO
178_DZT_METRO_N,Hadayeq El-Zaitoun,,30.105908,31.31047753,0,178_DZT_METRO,,178_DZT_METRO
223_HZT_METRO_N,Helmeyet El-Zaitoun,,30.11325184,31.31399486,0,223_HZT_METRO,,223_HZT_METRO
223_MAT_METRO_N,El-Matareyya,,30.12087977,31.31385015,0,223_MAT_METRO,,223_MAT_METRO
226_AIN_METRO_N,Ain Shams,,30.1310076,31.319099,0,226_AIN_METRO,,226_AIN_METRO
232_NKH_METRO_N,Ezbet El-Nakhl,,30.13927252,31.32451217,0,232_NKH_METRO,,232_NKH_METRO
251_MRG_METRO_N,El-Marg,,30.15210727,31.33581322,0,251_MRG_METRO,,251_MRG_METRO
251_NMR_METRO_N,New El-Marg,,30.16350672,31.33837579,0,251_NMR_METRO,,251_NMR_METRO
263_MON_METRO_N,El-Mounib,,29.9816322,31.21164658,0,263_MON_METRO,,263_MON_METRO
457_MEK_METRO_N,Sakiat Mekki,,29.99557655,31.2086355,0,457_MEK_METRO,,457_MEK_METRO
457_GIZ_METRO_N,El-Giza,,30.01067354,31.20710745,0,457_GIZ_METRO,,457_GIZ_METRO
369_FAS_METRO_N,Faisal,,30.01754686,31.2039747,0,369_FAS_METRO,,369_FAS_METRO
370_CUN_METRO_N,Cairo University,,30.02620052,31.20115645,0,370_CUN_METRO,,370_CUN_METRO
361_BHO_METRO_N,Bohooth,,30.03575511,31.20029831,0,361_BHO_METRO,,361_BHO_METRO
361_DOK_METRO_N,Dokki,,30.03824505,31.21228949,0,361_DOK_METRO,,361_DOK_METRO
237_OPR_METRO_N,Opera,,30.04188769,31.2250226,0,237_OPR_METRO,,237_OPR_METRO
69_NAG_METRO_N,Mohamed Naguib,,30.04531011,31.24426482,0,69_NAG_METRO,,69_NAG_METRO
81_ATT_METRO_N,Attaba,,30.05242014,31.24688208,0,81_ATT_METRO,,81_ATT_METRO
144_MSA_METRO_N,Masarra,,30.07088738,31.24507213,0,144_MSA_METRO,,144_MSA_METRO
153_RFG_METRO_N,Rod El Farag,,30.08059006,31.24545858,0,153_RFG_METRO,,153_RFG_METRO
157_STR_METRO_N,St. Teresa,,30.0879546,31.24551425,0,157_STR_METRO,,157_STR_METRO
157_KHL_METRO_N,Khalafawy,,30.09788041,31.24541126,0,157_KHL_METRO,,157_KHL_METRO
158_MZL_METRO_N,Mezallat,,30.10391022,31.24605645,0,158_MZL_METRO,,158_MZL_METRO
324_ZER_METRO_N,Kolleyyet El-Zeraa,,30.11369186,31.24866989,0,324_ZER_METRO,,324_ZER_METRO
326_SHB_METRO_N,Shubra El-Kheima,,30.122569,31.24480466,0,326_SHB_METRO,,326_SHB_METRO
208_FZO_METRO_N,Fair Zone,,30.07311565,31.30054624,0,208_FZO_METRO,,208_FZO_METRO
192_KBN_METRO_N,Koleyet El-Banat,,30.08414757,31.32910599,0,192_KBN_METRO,,192_KBN_METRO
190_STA_METRO_N,Stadium,,30.07284313,31.31725049,0,190_STA_METRO,,190_STA_METRO
214_AHR_METRO_N,Al-Ahram,,30.09126404,31.32659894,0,214_AHR_METRO,,214_AHR_METRO
161_ABB_METRO_N,Abbassiya,,30.06963106,31.28102213,0,161_ABB_METRO,,161_ABB_METRO
163_ABB_METRO_N,Abdou Pasha,,30.06474604,31.27479844,0,163_ABB_METRO,,163_ABB_METRO
118_GES_METRO_N,El-Geish,,30.06175572,31.26692836,0,118_GES_METRO,,118_GES_METRO
77_BSH_METRO_N,Bab El-Shaaria,,30.05386224,31.25606261,0,77_BSH_METRO,,77_BSH_METRO
457_OMS_METRO_N,Omm El-Misryeen,,30.00599033,31.2079595,0,457_OMS_METRO,,457_OMS_METRO
10_HLW_METRO_S,Helwan,,29.84914635,31.33410853,0,10_HLW_METRO,,10_HLW_METRO
10_AHL_METRO_S,Ain Helwan,,29.862597,31.32502303,0,10_AHL_METRO,,10_AHL_METRO
10_UHL_METRO_S,Helwan University,,29.8694444,31.3200422,0,10_UHL_METRO,,10_UHL_METRO
14_HOF_METRO_S,Wadi Hof,,29.87908235,31.31358313,0,14_HOF_METRO,,14_HOF_METRO
14_HHL_METRO_S,Hadayek Helwan,,29.89718649,31.30403428,0,14_HHL_METRO,,14_HHL_METRO
7_MAA_METRO_S,El-Maasara,,29.90636794,31.29953211,0,7_MAA_METRO,,7_MAA_METRO
27_TAS_METRO_S,Tora El-Asmant,,29.92598266,31.28760049,0,27_TAS_METRO,,27_TAS_METRO
26_KZK_METRO_S,Kozzika,,29.93646935,31.28149678,0,26_KZK_METRO,,26_KZK_METRO
28_TBA_METRO_S,Tora El-Balad,,29.94670473,31.2728575,0,28_TBA_METRO,,28_TBA_METRO
23_SMA_METRO_S,Sakanat El-Maadi,,29.95330087,31.26295604,0,23_SMA_METRO,,23_SMA_METRO
23_MAD_METRO_S,Maadi,,29.96029333,31.25772103,0,23_MAD_METRO,,23_MAD_METRO
246_HMA_METRO_S,Hadayek El-Maadi,,29.96980116,31.25085695,0,246_HMA_METRO,,246_HMA_METRO
246_DAR_METRO_S,Dar El-Salam,,29.98204125,31.24213409,0,246_DAR_METRO,,246_DAR_METRO
31_ZAH_Metro_S,El-Zahraa,,29.99553821,31.23123519,0,31_ZAH_Metro,,31_ZAH_Metro
34_MGR_METRO_S,Mar Girgis,,30.00617048,31.22955449,0,34_MGR_METRO,,34_MGR_METRO
32_MSH_Metro_S,El-Malek El-Saleh,,30.01771168,31.23118191,0,32_MSH_Metro,,32_MSH_Metro
47_ZEI_Metro_S,Al-Sayeda Zeinab,,30.02929347,31.23532856,0,47_ZEI_Metro,,47_ZEI_Metro
52_SZA_Metro_S,Saad Zaghloul,,30.03566796,31.23780782,0,52_SZA_Metro,,52_SZA_Metro
86_SAD_METRO_S,Sadat,,30.0438555,31.23570807,0,86_SAD_METRO,,86_SAD_METRO
87_NAS_METRO_S,Nasser,,30.05342843,31.23864421,0,87_NAS_METRO,,87_NAS_METRO
98_ORA_METRO_S,Orabi,,30.05702051,31.24232543,0,98_ORA_METRO,,98_ORA_METRO
100_SHO_METRO_S,Al-Shohadaa,,30.06163171,31.24625811,0,100_SHO_METRO,,100_SHO_METRO
137_GHM_METRO_S,Ghamra,,30.06897582,31.26465606,0,137_GHM_METRO,,137_GHM_METRO
159_DMD_METRO_S,El-Demerdash,,30.07727367,31.27781513,0,159_DMD_METRO,,159_DMD_METRO
160_MSD_METRO_S,Manshiet El-Sadr,,30.08198521,31.28753448,0,160_MSD_METRO,,160_MSD_METRO
180_KQO_METRO_S,Kobri El-Qobba,,30.08720866,31.29408847,0,180_KQO_METRO,,180_KQO_METRO
180_HQO_METRO_S,Hammamat El-Qobba,,30.091155,31.29903139,0,180_HQO_METRO,,180_HQO_METRO
180_SQO_METRO_S,Saray El-Qobba,,30.09771715,31.30446397,0,180_SQO_METRO,,180_SQO_METRO
178_DZT_METRO_S,Hadayeq El-Zaitoun,,30.10593656,31.31043573,0,178_DZT_METRO,,178_DZT_METRO
223_HZT_METRO_S,Helmeyet El-Zaitoun,,30.11325542,31.31394259,0,223_HZT_METRO,,223_HZT_METRO
223_MAT_METRO_S,El-Matareyya,,30.12089699,31.31370072,0,223_MAT_METRO,,223_MAT_METRO
226_AIN_METRO_S,Ain Shams,,30.13104236,31.31902927,0,226_AIN_METRO,,226_AIN_METRO
232_NKH_METRO_S,Ezbet El-Nakhl,,30.13930274,31.32448738,0,232_NKH_METRO,,232_NKH_METRO
251_MRG_METRO_S,El-Marg,,30.15211739,31.33573864,0,251_MRG_METRO,,251_MRG_METRO
251_NMR_METRO_S,New El-Marg,,30.16356909,31.33822442,0,251_NMR_METRO,,251_NMR_METRO
263_MON_METRO_S,El-Mounib,,29.98161046,31.21154471,0,263_MON_METRO,,263_MON_METRO
457_MEK_METRO_S,Sakiat Mekki,,29.99556865,31.20858358,0,457_MEK_METRO,,457_MEK_METRO
457_GIZ_METRO_S,El-Giza,,30.01065633,31.20706494,0,457_GIZ_METRO,,457_GIZ_METRO
369_FAS_METRO_S,Faisal,,30.01753784,31.20392741,0,369_FAS_METRO,,369_FAS_METRO
370_CUN_METRO_S,Cairo University,,30.02618197,31.20112055,0,370_CUN_METRO,,370_CUN_METRO
361_BHO_METRO_S,Bohooth,,30.03578216,31.20028373,0,361_BHO_METRO,,361_BHO_METRO
361_DOK_METRO_S,Dokki,,30.03829432,31.21227982,0,361_DOK_METRO,,361_DOK_METRO
237_OPR_METRO_S,Opera,,30.04194775,31.22497941,0,237_OPR_METRO,,237_OPR_METRO
69_NAG_METRO_S,Mohamed Naguib,,30.04531922,31.24421295,0,69_NAG_METRO,,69_NAG_METRO
81_ATT_METRO_S,Attaba,,30.05242301,31.24684085,0,81_ATT_METRO,,81_ATT_METRO
144_MSA_METRO_S,Masarra,,30.07088702,31.24503178,0,144_MSA_METRO,,144_MSA_METRO
153_RFG_METRO_S,Rod El Farag,,30.08058891,31.24542546,0,153_RFG_METRO,,153_RFG_METRO
157_STR_METRO_S,St. Teresa,,30.08794841,31.24547941,0,157_STR_METRO,,157_STR_METRO
157_KHL_METRO_S,Khalafawy,,30.09788506,31.24537728,0,157_KHL_METRO,,157_KHL_METRO
158_MZL_METRO_S,Mezallat,,30.10392187,31.24603958,0,158_MZL_METRO,,158_MZL_METRO
324_ZER_METRO_S,Kolleyyet El-Zeraa,,30.11370254,31.24863661,0,324_ZER_METRO,,324_ZER_METRO
326_SHB_METRO_S,Shubra El-Kheima,,30.12255097,31.24477241,0,326_SHB_METRO,,326_SHB_METRO
208_FZO_METRO_S,Fair Zone,,30.07313974,31.3005302,0,208_FZO_METRO,,208_FZO_METRO
192_KBN_METRO_S,Koleyet El-Banat,,30.08416019,31.32907732,0,192_KBN_METRO,,192_KBN_METRO
190_STA_METRO_S,Stadium,,30.07286581,31.31723255,0,190_STA_METRO,,190_STA_METRO
214_AHR_METRO_S,Al-Ahram,,30.09125121,31.32657142,0,214_AHR_METRO,,214_AHR_METRO
161_ABB_METRO_S,Abbassiya,,30.069645,31.28099501,0,161_ABB_METRO,,161_ABB_METRO
163_ABB_METRO_S,Abdou Pasha,,30.06477006,31.27478473,0,163_ABB_METRO,,163_ABB_METRO
118_GES_METRO_S,El-Geish,,30.06177709,31.26690947,0,118_GES_METRO,,118_GES_METRO
77_BSH_METRO_S,Bab El-Shaaria,,30.05387998,31.25603817,0,77_BSH_METRO,,77_BSH_METRO
457_OMS_METRO_S,Omm El-Misryeen,,30.00598319,31.20788647,0,457_OMS_METRO,,457_OMS_METRO
10_HLW_METRO,Helwan,,29.84919824,31.33427858,1,,,10_HLW_METRO
10_AHL_METRO,Ain Helwan,,29.86260453,31.32504691,1,,,10_AHL_METRO
10_UHL_METRO,Helwan University,,29.86945139,31.32006687,1,,,10_UHL_METRO
14_HOF_METRO,Wadi Hof,,29.87908791,31.31359956,1,,,14_HOF_METRO
14_HHL_METRO,Hadayek Helwan,,29.89719696,31.30406339,1,,,14_HHL_METRO
7_MAA_METRO,El-Maasara,,29.9063875,31.2995916,1,,,7_MAA_METRO
27_TAS_METRO,Tora El-Asmant,,29.92598428,31.28761601,1,,,27_TAS_METRO
26_KZK_METRO,Kozzika,,29.93647069,31.28151623,1,,,26_KZK_METRO
28_TBA_METRO,Tora El-Balad,,29.94672844,31.27289163,1,,,28_TBA_METRO
23_SMA_METRO,Sakanat El-Maadi,,29.95330922,31.26297275,1,,,23_SMA_METRO
23_MAD_METRO,Maadi,,29.96030296,31.25774139,1,,,23_MAD_METRO
246_HMA_METRO,Hadayek El-Maadi,,29.96980882,31.25087992,1,,,246_HMA_METRO
246_DAR_METRO,Dar El-Salam,,29.98206603,31.24217529,1,,,246_DAR_METRO
31_ZAH_Metro,El-Zahraa,,29.99555034,31.23125501,1,,,31_ZAH_Metro
34_MGR_METRO,Mar Girgis,,30.0061683,31.2295818,1,,,34_MGR_METRO
32_MSH_Metro,El-Malek El-Saleh,,30.01770699,31.23120983,1,,,32_MSH_Metro
47_ZEI_Metro,Al-Sayeda Zeinab,,30.02925347,31.2353964,1,,,47_ZEI_Metro
52_SZA_Metro,Saad Zaghloul,,30.03566285,31.23783648,1,,,52_SZA_Metro
86_SAD_METRO,Sadat,,30.04390643,31.23570267,1,,,86_SAD_METRO
87_NAS_METRO,Nasser,,30.05342089,31.23865847,1,,,87_NAS_METRO
98_ORA_METRO,Orabi,,30.05700782,31.2423363,1,,,98_ORA_METRO
100_SHO_METRO,Al-Shohadaa,,30.06165821,31.24628441,1,,,100_SHO_METRO
137_GHM_METRO,Ghamra,,30.06895831,31.26466386,1,,,137_GHM_METRO
159_DMD_METRO,El-Demerdash,,30.07726001,31.27782191,1,,,159_DMD_METRO
160_MSD_METRO,Manshiet El-Sadr,,30.08197654,31.28755463,1,,,160_MSD_METRO
180_KQO_METRO,Kobri El-Qobba,,30.08719695,31.29410411,1,,,180_KQO_METRO
180_HQO_METRO,Hammamat El-Qobba,,30.09119834,31.29903194,1,,,180_HQO_METRO
180_SQO_METRO,Saray El-Qobba,,30.09770767,31.3044801,1,,,180_SQO_METRO
178_DZT_METRO,Hadayeq El-Zaitoun,,30.10592201,31.310459,1,,,178_DZT_METRO
223_HZT_METRO,Helmeyet El-Zaitoun,,30.11325476,31.31396472,1,,,223_HZT_METRO
223_MAT_METRO,El-Matareyya,,30.12088101,31.3137756,1,,,223_MAT_METRO
226_AIN_METRO,Ain Shams,,30.13102641,31.31905881,1,,,226_AIN_METRO
232_NKH_METRO,Ezbet El-Nakhl,,30.13929047,31.32450132,1,,,232_NKH_METRO
251_MRG_METRO,El-Marg,,30.15210869,31.33576975,1,,,251_MRG_METRO
251_NMR_METRO,New El-Marg,,30.1635322,31.33829788,1,,,251_NMR_METRO
263_MON_METRO,El-Mounib,,29.98163122,31.21160183,1,,,263_MON_METRO
457_MEK_METRO,Sakiat Mekki,,29.9955641,31.20861156,1,,,457_MEK_METRO
457_GIZ_METRO,El-Giza,,30.01066045,31.20708666,1,,,457_GIZ_METRO
369_FAS_METRO,Faisal,,30.01753999,31.2039476,1,,,369_FAS_METRO
370_CUN_METRO,Cairo University,,30.02619082,31.20114029,1,,,370_CUN_METRO
361_BHO_METRO,Bohooth,,30.03576964,31.20029413,1,,,361_BHO_METRO
361_DOK_METRO,Dokki,,30.0382708,31.21228468,1,,,361_DOK_METRO
237_OPR_METRO,Opera,,30.04191958,31.22499866,1,,,237_OPR_METRO
69_NAG_METRO,Mohamed Naguib,,30.04532269,31.24423984,1,,,69_NAG_METRO
81_ATT_METRO,Attaba,,30.05309984,31.24719206,1,,,81_ATT_METRO
144_MSA_METRO,Masarra,,30.07089049,31.24505193,1,,,144_MSA_METRO
153_RFG_METRO,Rod El Farag,,30.08058877,31.24544057,1,,,153_RFG_METRO
157_STR_METRO,St. Teresa,,30.0879569,31.2454927,1,,,157_STR_METRO
157_KHL_METRO,Khalafawy,,30.09788653,31.24539372,1,,,157_KHL_METRO
158_MZL_METRO,Mezallat,,30.10391559,31.24604785,1,,,158_MZL_METRO
324_ZER_METRO,Kolleyyet El-Zeraa,,30.11369623,31.24865302,1,,,324_ZER_METRO
326_SHB_METRO,Shubra El-Kheima,,30.12255981,31.24478458,1,,,326_SHB_METRO
208_FZO_METRO,Fair Zone,,30.07312749,31.30053639,1,,,208_FZO_METRO
192_KBN_METRO,Koleyet El-Banat,,30.08415411,31.3290913,1,,,192_KBN_METRO
190_STA_METRO,Stadium,,30.07286157,31.31725023,1,,,190_STA_METRO
214_AHR_METRO,Al-Ahram,,30.09125642,31.32658547,1,,,214_AHR_METRO
161_ABB_METRO,Abbassiya,,30.06963657,31.28100813,1,,,161_ABB_METRO
163_ABB_METRO,Abdou Pasha,,30.06475817,31.27479071,1,,,163_ABB_METRO
118_GES_METRO,El-Geish,,30.06177058,31.26692541,1,,,118_GES_METRO
77_BSH_METRO,Bab El-Shaaria,,30.05387199,31.2560506,1,,,77_BSH_METRO
457_OMS_METRO,Omm El-Misryeen,,30.00598641,31.20792599,1,,,457_OMS_METRO
100_SHO_METRO_N2,Al-Shohadaa,,30.06166495,31.24626419,0,100_SHO_METRO,,100_SHO_METRO
100_SHO_METRO_S2,Al-Shohadaa,,30.06168417,31.24626488,0,100_SHO_METRO,,100_SHO_METRO
81_ATT_METRO_E,Attaba,,30.05337857,31.24765076,0,81_ATT_METRO,,81_ATT_METRO
81_ATT_METRO_W,Attaba,,30.05340316,31.24766366,0,81_ATT_METRO,,81_ATT_METRO
86_SAD_METRO_S2,Sadat,,30.04392078,31.2356144,0,86_SAD_METRO,,86_SAD_METRO
86_SAD_METRO_N2,Sadat,,30.04389791,31.23581946,0,86_SAD_METRO,,86_SAD_METRO
garlic.collects.motel,Sultan Abou Al Ela Mosque - Maspero,,30.0563293891762,31.2308393389248,0,,,
backtrack.slippers.yours,Al Sawy Culture Wheel,,30.0621282321968,31.2171207915408,0,,,
swordfish.priced.workroom,Kit Kat Square,,30.0664816673427,31.2135584946213,0,,,
innocence.doll.meanings,Imbaba Police Station,,30.0752083602996,31.2221606668141,0,,,
taxpayers.lived.repair,Kit Kat District,,30.0710903387069,31.217552332867,0,,,
incorrect.full.deflation,Al Nozha Al Gadeeda,,30.1175814271584,31.3609223638969,0,,,
dogs.buns.earplugs,Al Sayeda Khadija Mosque - Al Hegaz Street,,30.1180309121652,31.3554953307301,0,,,
president.resettle.tonsils,National Institute for Occupational Safety and Health (Al Amn Al Senaey),,30.1131273185775,31.34819007452,0,,,
sleepers.insurers.courage,Al Hegaz Square,,30.1114705587866,31.34534969187,0,,,
scooters.decks.logged,Saint Fatima Square,,30.1057105727969,31.3438091135567,0,,,
preparing.hazelnuts.troll,Triumph Square,,30.1008700973533,31.3430500845738,0,,,
aviators.cubs.trousers,Safeer Square - Heliopolis,,30.0975181683717,31.3383830959035,0,,,
impressed.newly.snapper,Al Ismailiya Square,,30.0966969054044,31.3348797126976,0,,,
glare.napped.modifies,Salah Al Din Square - Heliopolis,,30.0952219840107,31.3302784423706,0,,,
slanting.look.fluffed,Korba District,,30.0926096394015,31.3232125341665,0,,,
anchorman.empires.shears,Al Itihadeya,,30.0905704890928,31.3198005445015,0,,,
poetic.scoop.basic,Abbasseya Square,,30.0739111632029,31.2854049136644,0,,,
hang.hangs.headrest,Al Demerdash Metro Station,,30.0765837884698,31.2770335809474,0,,,
visits.bookings.scars,Ghamra,,30.068195662989,31.2639838525689,0,,,
dreamer.troubles.sharpness,Al Mohandes Insurance - Ramses,,30.0665967346997,31.259818218308,0,,,
infants.cyber.observer,Coptic Hospital,,30.0635196919652,31.2519757108609,0,,,
purifier.irritable.still,Ahmed Helmy,,30.0648337025954,31.244873117975,0,,,
spent.crowns.objective,Ahmed Helmy,,30.0649470599656,31.2447539765257,0,,,
bleach.playroom.stapled,Ghamra,,30.0680958341137,31.2640841457888,0,,,
articulated.unspoiled.offstage,Abbasseya Square,,30.0741197968204,31.2855205826179,0,,,
sprint.managed.canoe,Roxy,,30.0932239263487,31.3153386657415,0,,,
topples.outfitter.overhead,Ibrahim Anwar Mosque - Al Zaytoun,,30.102991940995,31.3005289528299,0,,,
waistcoat.required.formal,Saray Al Qobba,,30.0979704981325,31.3073497860369,0,,,
builds.shipwreck.dine,Gesr Al Suez - Al Qobba,,30.0954800070666,31.3108394461007,0,,,
fermented.blasted.inert,Al Itihadeya,,30.0902902607808,31.3198397506148,0,,,
deodorant.debt.chess,Korba District,,30.0924023977952,31.3233676861791,0,,,
tweeted.postage.launcher,Salah Al Din Square - Heliopolis,,30.095050599354,31.3303463134862,0,,,
opens.perusing.sadly,Safeer Square - Heliopolis,,30.0978504017717,31.3385105540127,0,,,
harvest.cuddling.hype,Al Ismailiya Square,,30.0964597064779,31.3349901631544,0,,,
unscathed.amplifier.appendix,Triumph Square,,30.1008399972847,31.3432903179452,0,,,
part.september.discloses,Saint Fatima Square,,30.1056207359343,31.3440809528884,0,,,
carpentry.mash.guarded,Al Hegaz Square,,30.110910237958,31.3458016326417,0,,,
cheek.digit.important,Bisco Misr - Al Zaytoun,,30.1042078790245,31.2960810231116,0,,,
lasts.worthy.collected,Dabsha - Al Zaytoun,,30.1066587250057,31.287834507651,0,,,
strapping.suppers.sofa,Port Said Street - Al Sawah,,30.107545901153,31.2839909187265,0,,,
eyelash.massaging.enormous,Al Mazallat - Shubra,,30.1020057651952,31.2457791947129,0,,,
landowner.constrain.unwound,Al Demerdash Hospital,,30.0714663340447,31.2764753770432,0,,,
legs.undercuts.secrets,Al Mohandes Insurance - Ramses,,30.0664197870669,31.2598953400858,0,,,
achieving.cool.yachting,Gamal Abd Al Nasser Metro Station,,30.0534836427058,31.2388437841701,0,,,
hopes.myth.hypocrite,Sultan Abou Al Ela Mosque - Maspero,,30.0562434024182,31.2308167576279,0,,,
singers.regrowth.suave,Al Sawy Culture Wheel,,30.0622066721193,31.217157867387,0,,,
lure.disbelief.appealed,Kit Kat Square,,30.0665444221292,31.2139404158382,0,,,
stun.lobby.crowds,Kit Kat District,,30.0710223226535,31.2176523913648,0,,,
store.remembers.trifle,Imbaba Police Station,,30.0749474354153,31.2220838800962,0,,,
wealth.breeding.battling,Abd Al Moneim Riad,,30.05073,31.23446,0,,,
sample.flow.stolen,Ahmed Oraby - Ramses,,30.0570043138007,31.2424580497664,0,,,
cones.snowmen.clays,Ahmed Oraby Street,,30.0607388095557,31.2428805852267,0,,,
employers.regard.direction,Maadi Military Hospital,,29.9681702318807,31.2394901016328,0,,,
paces.terminology.geese,Dar Al Salam,,29.9810147508264,31.2316940732472,0,,,
ironclad.relaxing.fantastic,Al Salam International Hospital,,29.985061321308,31.2296909288587,0,,,
loving.flood.rebounded,Misr Al Qadimah,,30.0005099458817,31.2278400005808,0,,,
meanwhile.sadly.century,Al Malek Al Saleh Bridge,,30.0157434535327,31.2287238548493,0,,,
treaties.saturate.chips,Fom Al Khalig,,30.0228701803117,31.2309002480295,0,,,
applause.painting.cuddling,Fom Al Khalig,,30.0230796600313,31.230189860802,0,,,
chaos.stint.proven,Abou Al Reesh,,30.0282820633422,31.237447185474,0,,,
poster.reclining.album,Al Sayeda Zeinab,,30.0320802658022,31.2429426181604,0,,,
judges.logged.stability,Ahmed Maher Teaching Hospital,,30.0396900938298,31.2503725602911,0,,,
march.secret.blissful,Ahmed Maher Teaching Hospital,,30.0398173908327,31.250235208627,0,,,
signs.lashed.remodels,Al Banat Mosque,,30.0465266878202,31.2539953751406,0,,,
segregate.crawler.prices,Al Moski - Port Said Street,,30.0480060668078,31.2549674746427,0,,,
spend.searcher.pint,Cairo Security Directorate (Modereyet Amn Al Qahera),,30.0436715553187,31.2528122413126,0,,,
kilt.epic.edgy,Zahraa Nasr City,,30.051251993671,31.3999734022762,0,,,
nurture.princely.fuzz,Zahraa Nasr City,,30.0514911437987,31.399919968774,0,,,
reinforce.dividing.hindering,10th District (Al Hay Al Asher) - Nasr City,,30.0490715416558,31.3786575545912,0,,,
bolt.baths.putty,Al Salam Mosque - Nasr City,,30.0467009214167,31.3565895518774,0,,,
dazzling.peach.valley,Al Salam Mosque - Nasr City,,30.0464502930063,31.3562025393877,0,,,
riverboat.sands.resting,Al Manhal Private School,,30.0557599977235,31.3573199980796,0,,,
noble.modes.conforms,Al Manhal Private School,,30.0559589116536,31.3575179682342,0,,,
states.bearable.suffix,Al Tawheed Wal Nour - Mostafa Al Nahas,,30.0545472197356,31.3463085496175,0,,,
saved.sugars.massaging,Al Tawheed Wal Nour - Mostafa Al Nahas,,30.05477,31.34609,0,,,
name.huddling.solar,Alf Maskan,,30.1192116747929,31.3408912706626,0,,,
cleanser.radiates.salads,CTA Garage - Heliopolis,,30.1284716366694,31.361688272671,0,,,
deflated.bath.animates,Ain Shams University,,30.0757674859676,31.287046533252,0,,,
hurtles.rocked.contrived,Ain Shams University,,30.0756368929412,31.2873035709854,0,,,
slope.depend.bandaged,Armed Forces Medical Complex - Kobry Al Qobba,,30.0859016653936,31.2980546977185,0,,,
beaters.excuse.pocketed,Armed Forces Medical Complex - Kobry Al Qobba,,30.0860479661009,31.2979048843546,0,,,
tweeted.technical.longingly,Bab Al Shaaria Square,,30.0547104767756,31.2576791486587,0,,,
topical.emotional.slave,Al Tawheed Wal Nour - Al Geish Street,,30.0603898977268,31.264069263118,0,,,
appraised.corrects.companies,Al Geish Square,,30.0621694640966,31.2677919513854,0,,,
moped.assures.health,Al Geish Square,,30.0623707784761,31.267965576372,0,,,
widen.strong.predict,Abdo Basha,,30.065383325033,31.2766722083884,0,,,
noun.unheated.relieves,Abdo Basha,,30.0652960012618,31.2767336400288,0,,,
slap.front.spillage,Air Force Hospital - Al Waili,,30.0625083795232,31.2735292477306,0,,,
nicely.bandwagon.occur,Misr Sudan - 7th District - Nasr City,,30.049001883255,31.328009561713,0,,,
spillage.kicked.detonated,Misr Sudan - 7th District - Nasr City,,30.0489753464737,31.3277971652879,0,,,
stuns.node.embodied,Health Insurance Hospital - Nasr City,,30.0598079954325,31.3259732241742,0,,,
shun.generated.boot,Rabaah Al Adaweya Mosque,,30.0674352497287,31.324691664858,0,,,
cornering.indoors.stereos,Khedr Al Touny - Al Tayaran,,30.0755715827001,31.3219618957005,0,,,
otter.jukebox.merge,Heliopolis Sporting Club,,30.0889685540931,31.3174144187327,0,,,
dimension.skyrocket.fuels,Sphinx Square,,30.0599736498235,31.2080616000698,0,,,
picture.responded.bravo,Al Sekka Al Hadid Sporting Club - Nasr City,,30.0589667892289,31.3028688869753,0,,,
founders.bicker.aunts,Al Sekka Al Hadid Sporting Club - Nasr City,,30.0585292318074,31.3024799075575,0,,,
peroxide.racetrack.strumming,Al Azhar University - North,,30.0626795258496,31.3110116534028,0,,,
enlarge.winds.torch,Al Azhar University - North,,30.062840697304,31.3109518828719,0,,,
liberated.expand.encloses,Arab Contractors Sporting Club - Nasr Road,,30.0555000379686,31.2946990861867,0,,,
chromatic.charm.firmer,ENPPI,,30.0449305634113,31.3407548364035,0,,,
player.allowable.phantom,Manshiyat Nasser,,30.0452971822202,31.2790577923377,0,,,
risky.evolves.startles,Al Kasr Al Aini Hospital,,30.0308300337529,31.2325101489207,0,,,
sensual.gratitude.massaged,Giza Square,,30.01566,31.21183,0,,,
decompose.hiring.skis,Al Kasr Al Aini Hospital,,30.0291694126062,31.2309104514435,0,,,
laugh.renews.surprise,Syndicate Of Commercial Professions - Abbasseya,,30.0665820167394,31.2941269012143,0,,,
pyramid.womanly.forehand,Syndicate Of Commercial Professions - Abbasseya,,30.0667815470527,31.2943335250982,0,,,
sprinkle.bookmark.excavated,Al Khalafawy Square,,30.0978184544003,31.2453103508586,0,,,
withdraws.watchdogs.delighted,Al Khalafawy Square,,30.0978154256161,31.2454498798671,0,,,
passports.smuggled.protest,Rod Al Farag Metro Station,,30.0807101440354,31.24533,0,,,
bookcases.message.area,Abdeen,,30.0411401139405,31.2455857914193,0,,,
glory.equivocal.utensil,Al Tabba - Nasr City,,30.0584189385163,31.3800110540787,0,,,
flush.cheese.sagging,Imbaba Fevers Hospital,,30.0838330082927,31.2259918516784,0,,,
against.fortunes.constants,Hadabet Al Ahram,,29.9713170291191,31.1086374571329,0,,,
cosmic.fish.basket,Hadabet Al Ahram,,29.9713307012964,31.1085232522418,0,,,
jetliner.magnets.renovated,Al Remaya Square,,29.9887140700724,31.1278083555783,0,,,
steam.archive.version,Al Remaya Square,,29.9886351011664,31.1286341173145,0,,,
perfected.lock.wording,Al Sekka Al Hadid Sporting Club - Nasr City,,30.0586295615893,31.303396679758,0,,,
lifeboats.tomorrow.exhaled,Ahmed Oraby - Ramses,,30.0575522657162,31.241502690538,0,,,
slab.boss.lamppost,Al Sayeda Aisha,,30.0261602888043,31.2572172916252,0,,,
skid.themes.jumbled,Abbasseya Bridge - End,,30.0753572634676,31.2837102637933,0,,,
crafted.amphibian.elevate,Gamal Abd Al Nasser Metro Station,,30.053936228801,31.2377080320011,0,,,
equality.regrowth.fizzy,Roxy,,30.0930592581847,31.3152318498378,0,,,
vest.centrally.recital,Abd Al Moneim Riad,,30.0501737668317,31.233239209096,0,,,
baroness.commutes.sweetener,Abd Al Moneim Riad,,30.0494980232462,31.2312721019486,0,,,
quantity.sunset.cookie,Abd Al Moneim Riad,,30.0486703189325,31.232644317338,0,,,
squabbles.outsiders.wrenching,Sudan Street,,30.0594183132264,31.190032767175,0,,,
harp.stoppage.mega,Sudan Street,,30.0592031364608,31.1900829307612,0,,,
customers.crass.pining,American University in Cairo (AUC) - New Cairo,,30.00969,31.5235,0,,,
improvise.lushly.packing,American University in Cairo (AUC) - New Cairo,,30.00982,31.52381,0,,,
newlyweds.lakeside.flank,3rd Settlement (Tagamoa Thaleth),,29.9834,31.44278,0,,,
gymnasium.cuts.bucket,3rd Settlement (Tagamoa Thaleth),,29.9840110915113,31.4429099530515,0,,,
belonging.treatment.feathers,Al Karma Compound Gate - Sheikh Zayed,El-Karma Gate 'Southbound',30.0422656647319,31.0042940666358,0,,,
flexibly.mash.truly,Al Rawda - Al Horreya,El-Rawda - El-Horeya '7pm',30.0405050409672,31.002909112535,0,,,
fills.ooze.microchip,Zain Paint Store - Al Rawda - Sheikh Zayed,Zain Paint Store 'Southbound',30.0384667906936,31.004971545789,0,,,
ship.emotional.mixer,Hyper - Sheikh Zayed,Hyper One - Me7war 'Eastbound',30.0295216618406,31.0239592509846,0,,,
cassettes.among.swimsuits,Al Mansoreya - 26th of July Mehwar,,30.062909909475,31.0980205513703,0,,,
reckon.though.forces,Al Marioteya Road - 26th of July Mehwar,,30.0650238589674,31.1263971813925,0,,,
crunching.kinder.passions,Al Barageel Entrance,,30.0642666912633,31.1614510343439,0,,,
cookbooks.unpainted.political,Ring Road Steps 1 - 26th of July Mehwar,,30.0624617698799,31.172786910589,0,,,
bride.scrapped.picturing,Ring Road Steps 2 - 26th of July Mehwar,,30.0619235406909,31.1755085705573,0,,,
vitals.seriously.behalf,Al Lewaa Steps - 26th of July Mehwar,,30.0599866939806,31.1871586467756,0,,,
mega.robot.approve,Al Sudan Steps - 26th of July Mehwar,,30.0592738254361,31.1897582008687,0,,,
purist.flattered.courts,Zamalek Sporting Club,,30.0607621903837,31.2050137235709,0,,,
pushes.prime.curls,Al Balloon Theatre,,30.0621570169592,31.2141721017549,0,,,
vital.appointed.winning,Al Mehwar Exit - 15th of May Bridge,,30.0581550419501,31.2257723405726,0,,,
deeply.eggs.recording,Al Zamalek Steps - 15th of May Bridge,,30.0581542475312,31.2261692841345,0,,,
origin.sing.joints,15th of May Bridge,,30.0573799763147,31.2278513419721,0,,,
alike.strutted.tamed,Maspero Exit - 15th of May Bridge,,30.0551538303674,31.2291662198057,0,,,
fatigued.chairs.tonsils,Hilton Ramses - Abd Al Moneim Riad,,30.0499443103066,31.2310886671633,0,,,
exporters.croaking.cattle,Ramses,,30.0589819460666,31.2445194569362,0,,,
lunching.mammals.organic,Coptic Hospital,,30.0634229826542,31.2521047485543,0,,,
willing.songs.clubbing,Ahmed Saaed Bridge - End,,30.0706643176221,31.2729311787763,0,,,
stunts.boasted.crows,Al Nour Mosque - Abbasseya,,30.0748299809289,31.2823465676866,0,,,
octopus.hindering.quilting,Abbasseya,,30.0734253486112,31.2846729838677,0,,,
digests.robes.buck,Gardenia Heights - New Cairo,,29.9858751232917,31.4688002863863,0,,,
shady.stiffly.ethic,Al Nahda Square - New Cairo,,29.9996608156827,31.4693360288389,0,,,
wheat.track.pointed,Al Nahda Square - New Cairo,,29.9989338557423,31.468264672815,0,,,
ripen.petted.aged,Al Narges 8 - 5th Settlement,,30.0016530882175,31.4611356439934,0,,,
lunch.sparrows.logged,Al Narges 7 - 5th Settlement,,30.0034046976384,31.4589448818373,0,,,
covers.engrossed.gentlemen,Al Narges 4 - 5th Settlement,,30.0058825440647,31.4497611302092,0,,,
officials.grouping.tooth,Fatma Al Sharbatly Mosque,,30.0053596102956,31.4454105129879,0,,,
fragments.disco.mull,Mountain View Square,,30.0158487353392,31.4452057602651,0,,,
emulated.having.reckoned,Mountain View Square,,30.016488651874,31.4450299077324,0,,,
trickster.scoring.sugar,Air Force Hospital,,30.0164374559353,31.4335265464333,0,,,
firepower.burst.crinkled,CIB - South Teseen Street,,30.0164,31.4230290162588,0,,,
conspired.dressings.marching,Bank Al Etihad - South Teseen Street,,30.01641,31.4206631676832,0,,,
repeating.bless.gadget,Downtown Mall,,30.01636,31.41264,0,,,
skirting.owls.showrooms,Downtown Mall,,30.0160906842077,31.4115008007372,0,,,
fattening.watching.gymnasium,South Teseen Street Entrance,,30.0130196627731,31.4009798896508,0,,,
alike.leans.walking,Windrose Academy,,29.9797325436739,31.351714771248,0,,,
models.skim.variously,Baron Mall Pedestrian Bridge,,29.9819729016682,31.3384073128164,0,,,
instance.permanent.decanter,Wataneya Gas Station - Ring Road - Kattameya,,29.986729685718,31.3092624734786,0,,,
thudding.pumpkin.issuer,Masaken Al Kendy,,29.9917283501348,31.2929286630316,0,,,
obliging.blog.blaring,Basateen Steps - Ring Road,,29.9904152880093,31.266972223198,0,,,
picnic.refills.status,Ezbet Kheirallah Steps 2 - Ring Road,,29.9917241313298,31.2519695479538,0,,,
promoting.scatter.shun,Al Bahr Al Aazam Exit - Start,,29.9871148813785,31.2183071843435,0,,,
mediate.agreement.plunge,Al Bahr Al Aazam Exit - End,,29.9890055538003,31.2153054580148,0,,,
rejoiced.hound.tins,The Egyptian Lawyers Association,,30.052382452447,31.2375986049061,0,,,
fingertip.overlaps.curls,Ramses,,30.0615301339475,31.2463099526807,0,,,
scooter.compiler.placidly,Faculty of Medicine - Ain Shams University,,30.0771668111725,31.2811789287171,0,,,
claim.sizzled.essential,Abbaseya Bridge - Start,,30.0704879231787,31.2893100631129,0,,,
circulate.flasks.plotted,Abbasseya Hospital,,30.0687426363437,31.2921735166563,0,,,
clumped.headache.linked,Ramses Extension - Northside,,30.0636796384331,31.2983906030602,0,,,
passage.dabbling.sides,Al Azhar Pedestrian Bridge,,30.0607807295668,31.3074531866549,0,,,
reflected.tinny.installs,Nasr City Sporting Club,,30.0585972458096,31.310671127262,0,,,
expiring.heat.refusals,Nasr City Sporting Club,,30.0585134688741,31.3110072630814,0,,,
states.sitting.topics,Nasr City Police Station 2,,30.0504846378243,31.3121192339267,0,,,
blink.outlines.huddle,Nasr City Police Station 2,,30.0506704705193,31.3118487973523,0,,,
laptop.composes.sensible,Al Fath Superjet,,30.0462101616842,31.3078751629058,0,,,
herds.ticked.thumbnail,Al Gamaia Al Sharaia,,30.0476005004042,31.3134292452325,0,,,
rocks.precluded.hotspot,Azhar University City for Boys,,30.0500084999979,31.3164552073475,0,,,
kinder.certainly.reunion,Ashrafco Tyres - Nasr City,,30.050422720016,31.3193387959966,0,,,
shopping.signified.paces,Al Azhar University - South,,30.0510541418347,31.3205413011792,0,,,
soup.renovated.upholding,Ahmed Al Sallab Mall,,30.0520393010986,31.3244087477668,0,,,
puns.exporters.promoted,Zaker Hussein - Al Tayaran,,30.0436939763538,31.3292206957805,0,,,
fuses.clever.handy,Zaker Hussein - Al Tayaran,,30.0434993351806,31.3292592378526,0,,,
receiving.mermaids.awesome,ENPPI,,30.04457606716,31.3394167549499,0,,,
extent.tinkle.ombudsman,Future School - Nasr City,,30.0454806646321,31.3475605798136,0,,,
workouts.performed.protects,Kheir Zaman - Ahmed Al Zomor,,30.0469888305511,31.3595127199571,0,,,
strongly.inversion.passion,Car Market - Nasr City,,30.0476241991177,31.3661871773757,0,,,
quibble.breakfast.scores,Car Market - Nasr City,,30.0478384967658,31.3668423070025,0,,,
giants.procured.kickers,Al Mothalath - Ahmed Al Zomor,,30.0482680003936,31.3713920041979,0,,,
flocking.deodorant.scratches,Vodafone - Ahmed Al Zomor,,30.0486204699745,31.3745175648538,0,,,
noises.factually.included,Vodafone - Ahmed Al Zomor,,30.0484493989389,31.3745506709001,0,,,
studs.appealed.appendix,Al Nour Mosque - Nasr City,,30.0498675823253,31.385996925375,0,,,
latched.propelled.abstracts,Al Kahraba Street - Nasr City,,30.0500247483144,31.3892569047398,0,,,
minder.scratches.opened,Sun Mall,,30.0504193239232,31.3927632269344,0,,,
spoon.flooding.barrel,Tolip - Zahraa Nasr City,,30.0519311012012,31.4053380104311,0,,,
october.obviously.estimate,Emerald - New Cairo,,30.0527476952774,31.4304848835559,0,,,
composes.operated.vaulting,Twin Plaza,,30.0528929366505,31.4320098964311,0,,,
friends.serenade.speeches,Swan Lake Compound - 5th Settlement,,30.0543624128727,31.4421060949372,0,,,
explains.fenced.playback,Al Shabab Entrance - 1st Settlement,,30.0526603794383,31.4523274381724,0,,,
gravest.housework.hers,Al Rahman Mosque - 1st Settlement,,30.0528754043662,31.4552045479624,0,,,
inflamed.declares.giant,Al Shabrawy - 1st Settlement,,30.0596983674628,31.4615137751111,0,,,
manager.munch.bicker,Al Tawheed Mosque - 1st Settlement,,30.0616840906941,31.4618250074415,0,,,
present.reef.zoos,Postal Office - 1st Settlement,,30.0669988294069,31.4618557690612,0,,,
lure.tractor.polices,Ibrahim Al Rifaie School - 1st Settlement,,30.0700536157365,31.4562147081088,0,,,
chuckle.betrayed.ushering,Didi Mall - 1st Settlement,,30.0705645380327,31.4523348729319,0,,,
fulfilled.villager.hawks,Sky Mart Mall - 1st Settlement,,30.0678495353665,31.4511911751806,0,,,
fishery.darts.workshop,Higher Institute Of Marketing Commerce & Information Systems,,30.0662381615646,31.4500703366387,0,,,
active.wobbling.myself,Board of Trustees (Magles Al Omanaa) - 6th of October,Board of Trustees of the 6 of October city 'Southbound',29.9942429013035,30.9599885937083,0,,,
sapping.recipient.searches,Al Motamayez Entrance,Al Motamayez District Entrance 'Southbound',29.995752296115,30.9621827067525,0,,,
neon.hairstyle.nibbles,Mobil - Mall of Arabia,Mobil Gas Station 'Northbound',30.0046107840101,30.9753293067866,0,,,
powering.restored.filed,Nile University,Nile University 'Northbound',30.0093121099094,30.9854108759144,0,,,
recently.daytime.blacken,Ceramica Cleopatra - Sheikh Zayed,Ceramica Cleopatra 'Eastbound',30.0251555471427,31.0172553088164,0,,,
unwraps.hubcaps.mute,Royal City Gate - Sheikh Zayed,,30.0329863832625,31.0288103230108,0,,,
protrude.browser.engine,Alexandria Desert Road Steps - 26th of July Mehwar,,30.0463643130266,31.0517317343062,0,,,
giggle.carriage.tanks,Alexandria Desert Road Steps - 26th of July Mehwar,,30.0480249368353,31.0544447605445,0,,,
kebab.corrupted.slipping,26th of July Mehwar Exit -  Ring Road,,30.0638459634082,31.1743809188684,0,,,
taps.race.aimlessly,Al Abeet Steps -Ring Road,,30.0665855944896,31.1744910460988,0,,,
ballparks.lipstick.translate,Gamal Abd Al Nasser Steps - Ring Road,,30.0719447534096,31.1758182511365,0,,,
providing.airbrush.flops,Cairo Festival City - South Teseen Street,,30.0163886315845,31.4074565499909,0,,,
deriving.pump.floating,Al Barageel Steps - Ring Road,,30.0769349249382,31.1790166101022,0,,,
burying.outs.sharpen,Al Barageel Steps - Ring Road,,30.0772655404772,31.1791503975892,0,,,
instincts.camcorder.dragging,Al Sekka - Ring Road,,30.0792414228876,31.1834238963555,0,,,
stocked.ridiculed.spearing,Bashteel - Ring Road,,30.0842199478542,31.1918027077182,0,,,
radiated.fire.huddling,Ezbet Al Mofti Steps - Ring Road,,30.0883362638032,31.1955485971803,0,,,
evolves.latches.shelving,Al Masabek Steps - Ring Road,,30.0909466721461,31.196880176146,0,,,
tumble.blesses.arranger,Qawmeya Steps - Ring Road,,30.096388347228,31.1994562223575,0,,,
obstruct.stops.hindering,Al Khouly Steps - Ring Road,,30.0992963317645,31.2009171804529,0,,,
void.staples.something,Street 10 Steps - Ring Road,,30.1062806820353,31.2027820869494,0,,,
mural.sonic.rainfall,Al Bosta Steps - Ring Road,,30.1130415630714,31.2031278168619,0,,,
secondly.homecare.icons,Al Warraq Exit - Ring Road,,30.1190497743383,31.2022233852791,0,,,
struck.moped.custodian,Al Warraq Exit - Ring Road,,30.125542582208,31.2015027394897,0,,,
planting.signed.dormant,Total Gas Station Bassous - Ring Road,,30.1399599471827,31.2063126945855,0,,,
comical.chaos.mailers,Al Bassous Steps - Ring Road,,30.1447040336436,31.2119113834723,0,,,
wound.panning.dolly,Qalyub Exit - Cairo Alexandria Agriculture Road,,30.1468007661085,31.2302343492023,0,,,
jetting.technical.primed,Moassasa Pedestrian Bridge,,30.1364178036672,31.2330289979626,0,,,
dentistry.liked.baths,Ard Khedr Pedestrian Bridge - Shubra Al Kheima,,30.129501844845,31.2381411400792,0,,,
quits.surpasses.faced,Shubra Al Kheima Metro Station,,30.1243566699951,31.2424220413455,0,,,
sharpened.populate.cave,Ard Khedr Pedestrian Bridge - Shubra Al Kheima,,30.129260402903,31.2386346642475,0,,,
uproot.pods.closer,Shubra Al Kheima City Council,,30.1201177388481,31.2431854460633,0,,,
quiz.excavated.flukes,Shubra Al Kheima Metro Station,,30.1224348961305,31.2437707750089,0,,,
focus.skate.mercy,Obour Square - 3rd Settlement,,29.9840455842467,31.4378832379703,0,,,
clan.according.joggers,Arabella Square,,29.9855780558395,31.4303908725612,0,,,
switched.guilty.balconies,Gamal Abd Al Nasser Square - 5th Settlement,,29.9903871733311,31.4306728266689,0,,,
dumpling.haystack.nerve,Maahad - 5th Settlement,,29.9929624820627,31.4342549577404,0,,,
costs.slope.blink,Ommal Square - 5th Settlement,,29.997120000315,31.4322399782727,0,,,
race.pardon.nourished,Al Saraya Mall - 5th Settlement,,29.9962974005169,31.430649339886,0,,,
boils.costly.attitudes,Akhnaton School,,30.0062712960703,31.4143240546947,0,,,
enter.berated.ideals,Silver Star Mall - 5th Settlement,,30.0033129729832,31.420347026123,0,,,
relatives.lifetimes.control,Gas - 5th Settlement,,30.0148157675246,31.416283481063,0,,,
tastes.prettiest.ticking,Al Manarah Center For International Conferences,,30.018321478365,31.3862174268511,0,,,
shows.coolest.triangles,Military Cemetery - N/A Axis,,30.022703999316,31.3526207165228,0,,,
trip.uncle.portable,Cemeteries - Maadi,,30.0214311522926,31.3450010713379,0,,,
poses.baseless.yard,Al Shaheed Axis,,30.0240102507797,31.3433013601109,0,,,
persuade.creamed.towel,Ahmed Badawi Street,,30.0690048867618,31.2453127707643,0,,,
turntable.hobble.courtyard,Ahmed Oraby Street,,30.0608935782172,31.2426405963695,0,,,
pills.compiler.calculating,Ramses Railway Station,,30.06196,31.24802,0,,,
chains.bandaged.subway,Al Laimoon Bridge,,30.0620547170883,31.2460531655768,0,,,
evoke.bothered.releasing,Egyptian Media Production City - EMPC,Egyptian Media Production City - EMPC  'Southbound',29.9692065074274,31.0177718322379,0,,,
bandstand.distract.ants,Souq Al Gomla,Souq Elgomla 'Southbound',29.9660580505085,31.0287608866384,0,,,
mainly.styled.sometimes,Al Salam Mosque - Wahat Road,Al Salam Mosque - Wahat Road 'Southbound',29.9643134253519,31.0347303337959,0,,,
milder.daydream.smelter,Al Fardous Compound Entrance - 6th of October,,29.9587032968488,31.0541027827506,0,,,
shackles.levels.fidelity,Al Ashgar District,,29.9581052862614,31.0673783548533,0,,,
creatures.nicer.large,Zewail Road - Wahat Road,,29.956125897676,31.077572270412,0,,,
bench.stockpile.outnumber,Ebny Baitak - Wahat Road,,29.9558908208679,31.0787100979698,0,,,
excusing.tweaked.care,Ahram Gardens Resort - 6th of October,,29.9516562127504,31.0876689473699,0,,,
eruptions.describe.chuckling,Mina Gate 4 - Hadayek Al Ahram,,29.9518325884214,31.0879492701044,0,,,
tomato.flat.extreme,Hadayek Al Ahram Gate 3,,29.9485198867274,31.0952873522878,0,,,
denim.fired.cutlets,Al Fayoum Road,,29.9470306641568,31.0995716747397,0,,,
edicts.neckline.sometimes,Khafraa Gate - Hadayek Al Ahram,,29.9642360440991,31.1084169109882,0,,,
labs.shark.recliner,Khofo Gate - Hadayek Al Ahram,,29.9775873164255,31.1122104224735,0,,,
saunas.straddled.alley,Credit Agricole - Al Mansoreya Road,,29.9873478366547,31.1322638068285,0,,,
wicket.regularly.thrashed,Roushdy Pharmacy - Al Remaya,,29.9910780364522,31.1307060175971,0,,,
equal.paradise.freezers,Al Shabrawy - Al Mansoreya Road,,29.9899656978479,31.1349784763112,0,,,
infringe.swooned.erupt,Haram Mashaal - Al Mansoreya Road,,29.98682,31.14136,0,,,
ourselves.comedians.ships,QNB Bank - Haram Street,,29.9886941673742,31.1465818973751,0,,,
iceberg.landlords.interacts,Total Gas Station - Haram Marioteya,,29.9912064920027,31.1528904559775,0,,,
collapsed.strategy.backed,Al Mokhtabar - Haram Street,,29.9924152554442,31.1566255496712,0,,,
magnetic.lyrics.heat,Al Areesh - Haram Street,,29.9939140513015,31.1600738946129,0,,,
they.customers.wasps,Al Shabrawy - Haram Street,,29.9948041548568,31.1624681367723,0,,,
tinsel.sector.verb,Bayt Al Karam Al Shamy - Haram Street,,29.997168951056,31.168687339429,0,,,
happening.camcorder.habits,Arab African Bank - Haram Street,,29.9981689301515,31.1718370811488,0,,,
retrieves.foreheads.brink,Civil Registry - Haram Street,,29.9993075045465,31.174510420089,0,,,
shorten.overlooks.awaiting,Three Pyramids Hotel,,30.0006757068293,31.1781320349863,0,,,
cashiers.buckling.livid,General Administration Of Topographic Maps,,30.0021609946449,31.1820840824237,0,,,
developed.starts.fuss,Al Salam Mosque - Haram Street,,30.0037279026096,31.1862360279888,0,,,
leads.promotes.chaos,Radobis Cinema - Haram Street,,30.0066866544429,31.1944996026141,0,,,
comfort.geek.tidal,Oriental Weavers - Haram,,30.0103976907084,31.2041475628537,0,,,
gossiped.economics.cackling,Giza Metro Station,,30.0111473031911,31.2058169112708,0,,,
guardian.cropping.strays,Misr Gas Station - Giza Square,,30.0137300925798,31.2089647462701,0,,,
selects.thrusters.elevate,October Microbus Stop,,30.0144893095305,31.2098103127152,0,,,
painters.doubt.lump,Ragab Sons - Al Shabab Street - Obour,,30.2654927000258,31.4771108397176,0,,,
heave.rounds.chap,Al Mostaqbal Square - Obour,,30.2673245391454,31.4793008099939,0,,,
prospered.stand.elections,EPx Logistics For Transportation And Warehousing - Obour,,30.2605634781564,31.4724962985583,0,,,
snore.anchovies.shape,Al Shaheed Square - Obour,,30.2581450154977,31.4700336574225,0,,,
parked.bedroom.sailors,Safwa Clinics - Obour,,30.2561869691665,31.4678488307737,0,,,
heads.taxi.loafing,Safwa Clinics - Obour,,30.2562739280078,31.4677013496824,0,,,
path.delight.flinches,Plaza Club - Obour,,30.2521865959645,31.4636759552695,0,,,
pounces.nodded.sediment,Plaza Club - Obour,,30.2524590412215,31.4637668353601,0,,,
clattered.young.super,Al Taawon Gas Station - Al Shabab Street - Obour,,30.2476150445163,31.4589486884355,0,,,
excavated.tiptoes.visits,Banha University - Obour,,30.244685381792,31.4593685389068,0,,,
illogical.partner.agenda,Obour City Authority,,30.2390361390059,31.4582424430437,0,,,
tiny.fits.unfocused,Obour Sporting Club,,30.2352096129397,31.4581397465466,0,,,
masses.unloads.partners,Obour Sporting Club,,30.2342667491473,31.4583250309302,0,,,
cartoons.create.cluttered,Ahmed Oraby Square - Obour,,30.2253825726041,31.4575936408268,0,,,
urge.madder.frail,Ahmed Oraby Square - Obour,,30.2235183709485,31.4583837977043,0,,,
formal.cans.homecare,Gamaa Street - Obour,,30.210898428954,31.4574941458223,0,,,
incisions.exile.gravitate,Ain Shams University - Obour,,30.2044769942713,31.457490880035,0,,,
protrude.rocks.crawled,Al Tawheed Wal Nour - Obour,,30.1990559547413,31.4578106256772,0,,,
sharpened.promotion.handyman,Habitat - Obour,,30.18923,31.46596,0,,,
massaged.librarian.imposes,Habitat - Obour,,30.1889822009291,31.4659411661932,0,,,
deferring.branched.sweetener,Amoun Fountain - Obour,,30.1872507959193,31.4669895154158,0,,,
cultivation.novelists.seasick,Amoun Fountain - Obour,,30.186313281175,31.4685416996474,0,,,
passenger.generals.pokers,Fiat Service Center - Obour,,30.1790956575772,31.4719537505307,0,,,
received.sparrows.gobbles,Carrefour - Obour,,30.1721294780156,31.4749335898594,0,,,
gearing.bespoke.available,Carrefour - Obour,,30.171692184309,31.4753199545283,0,,,
curtains.pampered.stockpile,Obour Market - East,,30.1669255597415,31.4768962638518,0,,,
also.replying.historic,Obour Square,,30.1667978607074,31.4777501785332,0,,,
hopefully.eternally.roosters,Obour Market 2 - South,,30.1632913746639,31.4741970768927,0,,,
surfed.surcharge.concerned,Huckstep,,30.1584341660511,31.47042141876,0,,,
acid.enthused.doormat,Obour Market - South,,30.1613884344945,31.4683582304667,,,,
humidity.emulated.cutback,Suez Bridge,,30.0803242895941,31.4355804211944,0,,,
flaked.scare.poetry,Ismailiya Desert Road - Belbeis Desert Road,,30.1504975077169,31.4299317507421,0,,,
reference.toddler.feuds,Ismailiya Desert Road - Belbeis Desert Road,,30.1501920026059,31.429570760406,0,,,
harmless.jolt.slam,Al Salam Tunnel Ring Road - Start,,30.1486138040625,31.4257609222171,0,,,
much.dumplings.nutrients,10th of Ramadan (Asher Men Ramadan) Station,,30.1507091578453,31.4156945748503,0,,,
shifters.heartburn.leads,Al Salam,,30.1550039177973,31.4089001984715,0,,,
surpassed.spotty.type,Al Salam,,30.1552761979741,31.4088376459163,0,,,
soonest.willpower.envy,New Marg Exit - Ring Road,,30.162929670451,31.3341325835852,0,,,
promises.positives.belt,Madbah Steps - Ring Road,,30.1496746252449,31.2429506816798,0,,,
hooks.juggles.softly,Madbah Steps - Ring Road,,30.149782806589,31.2475141080202,0,,,
earth.nurses.assess,Street 29 - Al Hamd Square,,29.9998674379649,31.4225439705214,0,,,
unto.excavate.routines,Al Hamd Square,,30.0022500093735,31.4231291657819,0,,,
sponsors.butterfly.grudge,Silver Star Mall - 5th Settlement,,30.003618853124,31.420189298158,0,,,
tailing.fade.conqueror,Akhnaton School,,30.0064661265119,31.4143881145951,0,,,
rectangular.friend.shorten,Boury Square - 5th Settlement,,30.007476553498,31.4114980546366,0,,,
fighters.treatment.awaiting,Boury Square - 5th Settlement,,30.007849952449,31.412249859388,0,,,
overjoyed.fraction.reshape,Vitrac Square - 5th Settlement,,30.0113688196816,31.4144287031912,0,,,
gradually.swerving.dignify,Vitrac Square - 5th Settlement,,30.011175741922,31.413868296555,0,,,
certainty.perusing.troubled,Bloom Bank - South Teseen Street,,30.0163656148166,31.4175225481873,0,,,
comedians.arranges.outgrown,Cairo Festival City - South Teseen Street,,30.0160700998724,31.4074570971689,0,,,
bride.treetop.truck,Ikea - CFC,,30.0310279609523,31.4035316239349,0,,,
products.knowledge.unusually,Cairo Festival City - Ring Road,,30.0250759130848,31.4027034913874,0,,,
kipper.stepping.linguists,Cairo Festival City Pedestrian Bridge,,30.0252049076331,31.4010443433483,0,,,
sliding.muscular.unsettled,Nadi Al Baraka Steps - Ring Road,,30.1657717215328,31.3830231877166,0,,,
chap.rescuer.being,Nadi Al Baraka Steps - Ring Road,,30.1658898174009,31.3833504906298,0,,,
jiffy.supreme.overgrown,Hadayek Al Qobba Youth Center,,30.0895314870933,31.2853502493182,0,,,
dizziness.chained.flagging,Hadayek Al Qobba Youth Center,,30.0895119739142,31.2857557726421,0,,,
revision.stowing.subplot,Sekket Al Waili,,30.0916519567188,31.2796585763877,0,,,
entertainer.unspoiled.butter,Sekket Al Waili,,30.0915917755275,31.280077399969,0,,,
jokers.eradicate.fictional,Manshiyat Al Gamal,,30.094235623097,31.2723779378159,0,,,
husky.saunas.starfish,Salama Afifi Street - Al Zawya Al Hamra,,30.0953627066932,31.2673964372522,0,,,
purified.flag.overlook,Kia Motors - Joseph Tito Street,,30.1363420927298,31.3920673930433,0,,,
showrooms.recitals.poem,Al Herafyeen - Gesr Al Suez,,30.1368744535383,31.3876804786875,0,,,
repaying.assure.bills,Huckstep Bridge - Start,,30.143220390434,31.4037501488587,0,,,
frown.sampled.internal,Al Othman Motors - Ring Road,,30.1656816014841,31.3589671657604,0,,,
cycled.gained.juicy,Al Alg Exit - Ring Road,,30.165887397271,31.3591639650212,0,,,
mixed.maternal.unearthly,Dusit Hotel,,30.0251443304659,31.4569763018881,0,,,
submerged.onions.origin,Dusit Hotel,,30.0254524843931,31.4569120244539,0,,,
glossed.supposes.tastings,Concord Plaza - New Cairo,,30.0252784264928,31.485227119039,0,,,
plastic.prove.roosters,Concord Plaza - New Cairo,,30.0255830127026,31.4852738375399,0,,,
panic.exact.haircuts,American University in Cairo Gate 1,,30.0250474702615,31.4985074131821,0,,,
corals.liquid.culminate,American University in Cairo Gate 1,,30.0253717751062,31.4985887224854,0,,,
spotty.incisions.refrained,Al Wehda Square,,29.9839907667339,31.4179201533468,0,,,
estate.ecologist.cargo,Gamal Abd Al Nasser Square - 5th Settlement,,29.99111,31.43174,0,,,
bounded.toned.recliner,Al Masah Hospital - Mahdy Arafa,,30.0527323405557,31.3793298118956,0,,,
camp.partied.celebrate,Al Masah Hospital - Mahdy Arafa,,30.0527672164932,31.3795501224443,0,,,
years.tightrope.repeated,Ragab Sons - Mahdy Arafa,,30.055014264045,31.3798328711124,0,,,
deflection.segregate.climate,Ragab Sons - Mahdy Arafa,,30.0551460878684,31.3796217894472,0,,,
lunch.torched.centuries,Al Moemen Mosque,,30.0575734353471,31.3743090965417,0,,,
eruptions.racetrack.file,Al Moemen Mosque,,30.0577779552805,31.3744007273689,0,,,
raven.sketching.touchy,Pizza Hut - Mostafa Al Nahas,,30.056607120227,31.3651248525676,0,,,
older.ulterior.caressing,Pizza Hut - Mostafa Al Nahas,,30.0567922079013,31.3653507678956,0,,,
savings.duos.seasonal,Kids Land - Mostafa Al Nahas,,30.0572094673101,31.3691322759963,0,,,
sector.decks.surprised,Kids Land - Mostafa Al Nahas,,30.0570457192737,31.3691420085541,0,,,
headset.desiring.tooth,Abbas Al Akkad - Mostafa Al Nahas,,30.05392,31.33856,0,,,
hardly.consoles.greet,Abbas Al Akkad - Mostafa Al Nahas,,30.0537300796574,31.3386094902794,0,,,
otters.link.fabric,Al Tayaran - Mostafa Al Nahas,,30.0526696323581,31.3271968750436,0,,,
pairings.when.haven,Al Tayaran - Mostafa Al Nahas,,30.0524272517371,31.327010100125,0,,,
cargo.rekindle.fidgeting,7th District Stop (Hay Al Sabea) - Nasr City,,30.0420012820995,31.3295847356403,0,,,
nails.tradition.casino,Police Hospital - Al Shaheed Axis,,30.0390396582666,31.3279498610915,0,,,
labs.garages.cooked,Al Shaheed Axis Pedestrian Bridge,,30.0318584497723,31.3354630242114,0,,,
ogre.pavilions.newsstand,Al Shaheed Axis Pedestrian Bridge,,30.0316324954281,31.3353817107441,0,,,
encrusted.warping.flopping,Total Gas Station - Kattameya Entrance,,29.9835228824222,31.3666344799234,0,,,
veto.flaunting.desire,Baron Mall Pedestrian Bridge,,29.982070951561,31.3385968020366,0,,,
contoured.overdrive.drill,Adidas Steps - Ring Road,,29.9843554824783,31.3218243777725,0,,,
caressing.bronze.product,Carrefour - Ring Road,,29.9840294528635,31.3181062655554,0,,,
comfort.ringside.zoom,Autostrad - Al Moneeb Axis,,29.9940497085419,31.2815318398493,0,,,
shots.suiting.drifting,Autostrad - Al Moneeb Axis,,29.9945877183023,31.2808723089043,0,,,
crazy.lawn.backyards,Leather and Tanning Company - Autostrad,,30.0000259996965,31.2763875415256,0,,,
euphoric.costumed.exporters,Leather and Tanning Company - Autostrad,,30.0000898999532,31.276559070081,0,,,
pictured.plausible.servants,Al Magzar Al Aali - Autostrad,,30.0026030021344,31.2744904788925,0,,,
trumped.turkeys.campfires,Al Magzar Al Aali - Autostrad,,30.0025512510268,31.2743333299173,0,,,
breed.dimension.streak,Abageyya Bridge,,30.0121765465286,31.2672550113265,0,,,
coping.beauty.grips,Al Imam Al Shafei Cemetaries - Autostrad,,30.0124405040902,31.2672719210966,0,,,
scanner.placed.intention,Al Khelaa,,30.0178453090603,31.2645842386476,0,,,
milder.deed.dolls,Al Khelaa,,30.0173858324686,31.2649172906421,0,,,
lime.excavate.pity,Abageyya Stop,,30.0238072034421,31.2636910207543,0,,,
defenders.migrants.chambers,Salah Al Din Citadel - Salah Salem,,30.0253740508177,31.2616746991114,0,,,
scale.delays.locker,Abu Makarem Mosque - Al Waili,,30.0553423178808,31.2796076821192,0,,,
life.expressed.solves,Taki - Al Waili,,30.05924,31.27635,0,,,
lifestyle.denser.fizzle,Greek Hospital,,30.0667985267963,31.2810755803888,0,,,
dispensed.penned.manicured,Ahmed Al Sallab Mall,,30.0522468198452,31.3243460403754,0,,,
dressy.wiggly.tiredness,Fatma Al Sharbatly Mosque,,30.0062439192402,31.4462575823447,0,,,
schooling.shocks.chart,Air Force Hospital,,30.01612960994,31.4334114343105,0,,,
memo.yacht.protect,Mazar Mall,,30.0533500148799,30.9621319150885,0,,,
rock.riverside.blitz,Hyper - Sheikh Zayed,Hyper One - Me7war 'Westbound',30.0297138729389,31.0237835925801,0,,,
remarks.perfumes.airship,The Outlet Mall - 6th of October,Outlet Mall 'Eastbound',29.93699,30.89577,0,,,
merge.puddles.lifelong,10th District (Al Hay Al Asher) - Nasr City,,30.0484005984831,31.3799591997242,0,,,
dreamers.subplot.powering,Zain Paint Store - Al Rawda - Sheikh Zayed,Zain Paint Store 'Northbound',30.0385702237418,31.0051276765002,0,,,
bloom.announced.hung,Al Rawda - Al Horreya,El-Rawda - El-Horeya '3pm',30.0407487802471,31.0032154551736,0,,,
plankton.consonant.fattest,Al Karma Compound Gate - Sheikh Zayed,El-Karma Gate 'Northbound',30.0421616308061,31.0044699631148,0,,,
linguists.lectured.mole,Al Tabba - 6th of October,Al Tabba 'Northbound',29.9915224673686,30.9548911543477,,,,
social.unionists.icebergs,Board of Trustees (Magles Al Omanaa) - 6th of October,Board of Trustees of 6th of October City 'Northbound',29.9946213922944,30.9596635733533,,,,
firming.thuds.driveway,Al Motamayez Entrance,Al-Motamayez District Entrance 'Northbound',29.9960785934198,30.9618950304078,,,,
bandage.second.embellish,Mall of Arabia,Mall of Arabia 'Southbound',30.0025305533412,30.9726058912844,,,,
extra.assurance.unframed,Mall of Arabia,Mall of Arabia 'Northbound',30.0027339342306,30.9724834217516,,,,
galaxy.each.decimals,Mobil - Mall of Arabia,Mobil Gas Station 'Southbound',30.0043866561081,30.9754619476297,,,,
redeeming.thighs.hatter,Nile University,Nile University 'Southbound',30.0090813051497,30.9853870770837,,,,
monitors.flow.thickened,Juhayna Square,Juhayna Square '9pm',30.0085192319817,30.981578389295,,,,
jeep.closet.openly,Al Gehaz Entrance - 6th of October,Al-Gehaz Entrance 'Northbound',29.96247340713,30.9699058435917,,,,
lifted.months.vies,Al Gehaz Entrance - 6th of October,Al-Gehaz Entrance 'Southbound',29.9622867813795,30.9700503964896,,,,
tight.dusters.dining,Al Motamayez Wahat Entrance 2,Al-Motamayyez Entrance 2 'Northbound',29.97363,30.98698,,,,
folds.chuck.tramps,Al Motamayez Wahat Entrance 2,Al-Motamayyez Entrance 2 'Southbound',29.9734329565856,30.9870956719482,,,,
undivided.highly.gums,Al Motamayez Wahat Entrance 1,Al-Motamayyez Entrance 1 'Northbound',29.9748936231468,30.9891384405831,,,,
sprinkler.repayment.formed,Al Motamayez Wahat Entrance 1,Al-Motamayyez Entrance 1 'Southbound',29.9746953512306,30.9892283397984,,,,
another.polishing.bleak,Wadi Degla Sporting Club - 6th of October,Wadi Degla 'Northbound',29.9728885880887,31.0057314237435,,,,
dabbling.lock.panicking,Wadi Degla Sporting Club - 6th of October,Wadi Degla 'Southbound',29.9727046991433,31.0056903958182,,,,
dugouts.digests.likes,Mall of Egypt,Mall of Egypt 'Southbound' Pedestrian Bridge,29.9704836543014,31.0133591861463,,,,
hears.helped.goodnight,Mall of Egypt,Mall of Egypt 'Northbound',29.9706971536406,31.0134625152272,,,,
escalated.vanilla.nourished,Egyptian Media Production City - EMPC,Egyptian Media Production City - EMPC  'Northbound',29.9694149035387,31.0178346883938,,,,
notifying.rust.cubed,Souq Al Gomla,Souq Elgomla 'Northbound',29.9662388774774,31.0288186277268,,,,
greeting.rates.lightens,Hilton Pyramids Golf - Dreamland,Dreamland 'Southbound',29.9615814105631,31.0449981612685,,,,
jolt.conveying.bonus,Dreamland,Dreamland 'Northbound',29.9587996345577,31.0546461876875,,,,
duty.cope.direction,Al Salam Mosque - Wahat Road,Al Salam Mosque - Wahat Road 'Northbound',29.9645101829548,31.0348040266998,,,,
juicy.cools.division,Al Shorouq City Authority Steps,,30.1579459398975,31.6073113880479,,,,
plugs.artichoke.gushes,Al Khazan Street,Al-Khazan 'Northbound',29.9565028920597,30.9200662110763,,,,
mermaids.stop.century,Al Tawheed Wal Nour - Al Hossary,Al Tawheed & El Noor 'Southbound',29.9687750044882,30.9392281219792,0,,,
mallets.ramp.manly,Al Yasmine Compound - 6th of October,,29.9376063987237,30.9275445780038,,,,
nametag.sounding.writing,Al Yasmine Compound - 6th of October,,29.9376846534134,30.9274640027463,,,,
accusing.sideboard.bill,Al Hossary Azhar Language School,,29.9706688545585,30.9498982103396,,,,
something.specifies.tortoises,Al Hossary Azhar Language School,,29.9707388567307,30.9498334198351,,,,
whirlpool.observers.treatment,Telecom Egypt Central - 6th Of October,North bound,29.9739696168794,30.9551392528333,,,,
goats.responses.necklace,Telecom Egypt Central - 6th Of October,South bound,29.973628489543,30.9554121547024,,,,
snowmen.hurray.nest,Telecom Egypt Central - 6th Of October,West bound,29.973744093807,30.9552017928449,,,,
originate.reduce.relishing,MSA University,,29.955082533353,30.9589636693049,,,,
sped.automatic.finest,MSA University,,29.954909600745,30.9591512893399,,,,
various.birthing.dirt,Dolphin Mall,Dolphin Mall 'Westbound',29.9787033396533,30.9556570960696,0,,,
corkscrew.waddle.judge,Misr University,Misr University 'Northbound',29.9978340828606,30.9646654025856,,,,
orders.detained.smarting,Dar Al Foad Hospital - 6th of October,Dar Al Foaad Hospital 'Northbound',29.9993402223747,30.9669403453122,,,,
lost.treaty.distract,Mall of Arabia,Mall of Arabia 'Northbound',30.0028550303425,30.9723906206978,,,,
leaky.loitering.skater,Mobil - Mall of Arabia,Mobil Gas Station 'Northbound',30.0047051008706,30.975264632368,0,,,
expressed.mainly.gangs,Juhayna Square,Juhayna Square '3pm',30.0084131235002,30.9823973584197,0,,,
backlog.rationed.snow,Nile University,Nile University 'Northbound',30.0094953540955,30.9854364762051,0,,,
sharpens.rebounder.arranged,Zayed 2000,Zayed 2000 Me7war 'Westbound',30.0197282039839,31.0084879431356,0,,,
turkeys.ombudsman.vote,Zayed 2000,Zayed 2000 Me7war 'Westbound',30.0195409176467,31.0086604082518,0,,,
contemplate.managed.livid,Ceramica Cleopatra - Sheikh Zayed,Ceramica Cleopatra 'Westbound',30.0253364013577,31.0170692688038,0,,,
clicker.windpipe.frosted,Royal City Gate - Sheikh Zayed,,30.0331211937027,31.0286584448097,0,,,
boards.hardly.distorts,Dandy Mall,,30.060703290392,31.0287884936578,,,,
submit.complain.flamenco,Dandy Mall,,30.0612045171362,31.0291819297042,,,,
sleeping.coaching.branched,Smart Village (Al Qarya Al Zakeya),,30.0635163697004,31.0239606572635,,,,
polka.contained.postings,Smart Village (Al Qarya Al Zakeya),,30.0639663958627,31.0243217561003,,,,
receive.special.continues,Mazda Plaza - Alexandria Desert Road,,30.0818808271173,30.9947536029844,,,,
remains.decimals.hockey,Mazda Plaza - Alexandria Desert Road,,30.0809914228992,30.9938822889311,,,,
possible.subtitle.belt,Sheikh Zayed Entrance,,30.0861329189341,30.9632744579223,,,,
asterisk.mindset.pleaser,Sheikh Zayed Entrance,,30.0870110970042,30.9622838876348,,,,
sushi.ringside.prickly,SODIC,,30.0773068980604,30.9482007396182,,,,
saga.fury.importers,SODIC,,30.0767095331288,30.9487766917468,,,,
customers.like.publish,Al Remaya Square,,29.9896260020449,31.1278185724858,0,,,
inclines.woof.undertone,QNB Bank - Haram Street,,29.9888406759004,31.1464921084838,0,,,
deranged.configure.souk,Naguib Mahfouz Square - 1st Settlement,,30.0631082445681,31.4327547761673,,,,
sneezed.plums.outwit,Rehab Gate 13,,30.0639621367208,31.4749474143384,,,,
chin.registry.highlight,Rehab Gate 13,,30.0641415635441,31.475189717472,,,,
question.trickling.never,Rehab Square,,30.0550055234296,31.4743779163368,,,,
rebel.worker.shave,West Golf,,29.9994216868229,31.4009138325879,,,,
elect.online.sunbeam,West Golf,,29.999178816336,31.4006086876171,,,,
lunged.whips.rationed,5th Settlement City Authority,,29.9933758074824,31.416087594395,,,,
lecturing.lifters.jaundice,5th Settlement City Authority,,29.9930194806703,31.4162413345269,,,,
homelands.hardly.penny,5th Settlement City Authority,,29.9930342708602,31.4176689770686,,,,
vows.annual.catch,Al Takwa Mosque - 5th Settlement,,29.995270314045,31.4228484626529,,,,
chatted.creatures.stunning,Al Takwa Mosque - 5th Settlement,,29.9951706748708,31.4228313371699,,,,
likely.doghouse.otter,Police Station - 5th Settlement,,29.9977869816225,31.4266390326402,,,,
ecologist.natural.windy,Al Mahkama - New Cairo,,30.0033712191845,31.4263177673923,,,,
gushes.foresight.completed,Al Mahkama - New Cairo,,30.0035195215126,31.4262278621647,,,,
marriage.parading.caravans,Mahmoudeya - Kattameya,,29.9747802365059,31.3970389985619,,,,
events.sprouting.diamond,Mahmoudeya - Kattameya,,29.9746878247172,31.3970415322831,,,,
reception.strictly.liver,Porto Cairo Mall,,30.0654828484793,31.4221439825545,,,,
absorb.milkman.lung,Porto Cairo Mall,,30.0657455689579,31.4218691963947,,,,
girder.pipes.afternoon,Porto Cairo Mall,,30.0650872108992,31.4224697559481,,,,
revolting.master.angers,N/A Axis,,30.0243595038702,31.3589451118608,,,,
motored.mothering.escaping,N/A Axis,,30.0246140508229,31.3588797236528,,,,
moon.chickens.thousands,Al Shaheed Axis,,30.0230989886082,31.3441990532388,0,,,
lavished.clashes.laws,Al Areesh - Haram Street,,29.9937350121605,31.1601386989976,0,,,
minus.daredevil.disbelief,Civil Registry - Haram Street,,29.9991705006821,31.1745789220212,0,,,
scatters.purple.keyboard,Al Salam Mosque - Haram Street,,30.0035687134603,31.1863267152058,0,,,
drones.active.crucially,Faisal Street - Al Marioteya Road,,29.9935717973792,31.147197005825,,,,
doormat.blatantly.bogus,Faisal Street - Al Marioteya Road,,29.9936636522428,31.1473589194829,,,,
clay.critic.gladiator,Water Station - Alexandria Desert Road,,30.0209747109473,31.0977384161639,,,,
yelled.cuddled.trappings,Water Station - Alexandria Desert Road,,30.0210062374047,31.0978263788723,,,,
community.piper.snitch,New Giza Gate 1,,30.0240292743789,31.0673216121864,,,,
laptops.quilting.downsize,New Giza Gate 1,,30.0238331097548,31.0671211661916,,,,
noble.discusses.electrode,Nour City Steps - Ring Road,,30.0124480691611,31.1554349469961,,,,
chatters.fells.outfit,Nour City Steps - Ring Road,,30.0126068690949,31.1553936901506,,,,
firm.makeup.unwanted,Saft Al Laban Entrance South - Ring Road,Saft Labn entrance (south) 'eastbound',30.0255907097567,31.1641798413872,,,,
kinks.results.unite,October Bus Station,,30.0513076389792,31.1775546490428,,,,
stylists.grape.graceful,Nahya Steps - Ring Road,,30.044286190928,31.1752003816426,,,,
relieves.continues.drifting,Ring Road Steps 1 - 26th of July Mehwar,,30.0620460877003,31.1755223172909,0,,,
roadshow.spooned.shout,Ring Road Steps 2 - 26th of July Mehwar,,30.0625820933574,31.1728074148214,,,,
important.towns.scars,Al Mansoreya - 26th of July Mehwar,,30.062762786007,31.0980439043017,0,,,
shipyards.regulator.gossiped,Al Marioteya Road - 26th of July Mehwar,,30.0651421804866,31.1263746068921,0,,,
dots.originate.guard,Al Sekka - Ring Road,,30.07937686989,31.1833164728709,0,,,
economics.potential.posts,Bashteel - Ring Road,,30.08409423124,31.1919323164876,0,,,
megawatt.nurse.sweeten,Qawmeya Steps - Ring Road,,30.0963315677484,31.199630132896,,,,
aliens.tortoises.sound,Street 10 Steps - Ring Road,,30.1062641898269,31.2029520323201,,,,
gathering.beaten.corrupted,Qalyub Exit - Ring Road,,30.1488888360154,31.2253235568107,,,,
summit.slouched.young,Qalyub Steps - Ring Road,,30.149147468329,31.2303276059111,,,,
lollipop.compress.sprouted,Zamalek Sporting Club,,30.0606649838066,31.2050171292068,0,,,
wink.icebergs.stays,Ministry Of Youth And Sports,,30.0609559999047,31.2049969706826,,,,
minivans.supplied.beefed,Ministry Of Youth And Sports,,30.0608295048594,31.2050161395472,,,,
chosen.pass.query,Mit Okba - Wadi Al Nile,,30.0605828395212,31.200999824556,,,,
liability.wording.beauty,Al Sudan Steps - 26th of July Mehwar,,30.0593399920752,31.1897598063827,0,,,
waltz.streetcar.linen,Al Lewaa Steps - 26th of July Mehwar,,30.0600723213959,31.1872185859662,0,,,
sublime.coil.strides,Agouza Corniche,,30.0465423610357,31.2182305105507,,,,
wildfires.landed.chemistry,Agouza Corniche,,30.04648953374,31.2181118729268,,,,
mealtime.tilting.awakening,Cairo University Main Gate - Giza,,30.0279997200398,31.210592807183,,,,
crate.raven.picnic,Cairo University Bridge,,30.0283114816744,31.2166094953593,,,,
whites.warrior.cubed,Cairo University Bridge,,30.0285111492382,31.2165357390175,,,,
lizard.family.yacht,Cairo University - Commerce Gate,,30.0283793997833,31.2055532445795,,,,
nosedive.albatross.hoot,Cairo University - Commerce Gate,,30.0284977213026,31.2055092632253,,,,
stencil.foods.crackled,Cairo Universty Metro Station,,30.0254585318842,31.2016420177798,,,,
runners.passages.impeached,Cairo Universty Metro Station,,30.0254896691261,31.2017895304634,,,,
spell.obviously.pigment,Al Balloon Theatre,,30.0622134532101,31.214157311565,0,,,
sleep.pencil.lavished,Faisal Metro Station,,30.0167510021833,31.2045035303115,,,,
cartoons.listening.towel,Faisal Metro Station,,30.0167873715646,31.2046661844457,,,,
terminal.letters.ogre,KFC - Al Lebeny,,29.9872093528007,31.1496355520194,,,,
difficult.mandolin.defining,Ragab Sons - Al Lebny,,29.9769488710667,31.1625444822357,,,,
sizes.torso.pastels,Al Talbeya Steps - Ring Road,,29.986717762293,31.1885273830411,,,,
squad.roofed.willpower,Al Talbeya Steps - Ring Road,,29.9868771915604,31.1884774839807,,,,
spearhead.existence.ratty,Al Moneeb Exit - Ring Road,,29.9858289131615,31.2084044614097,,,,
sandbags.jumped.licks,Al Moneeb Entrance - Ring Road,,29.9862829592217,31.2091702881237,,,,
slings.raven.flood,Gamal Abd Al Nasser Steps - Ring Road,,30.0722590402674,31.175755258473,,,,
widget.flows.blotchy,Helwan University,,29.869046355473,31.3200958993626,,,,
dusts.lighters.shows,Zahraa Exit - Ring Road,,29.9914009749048,31.2341053086611,,,,
exist.skis.loom,Zahraa Exit - Ring Road,,29.9915814608679,31.2340472700376,,,,
clash.assembles.cubs,Ezbet Kheirallah Steps 2 - Ring Road,,29.9915684179499,31.2519171716351,0,,,
remembers.verb.defers,Silver Nile Social Club - Maadi Corniche,,29.9785033397987,31.2329550237448,,,,
lifeboats.requested.misfits,Constitutional Court,,29.9692271491652,31.2383259801616,,,,
riverbed.narrating.switch,Al Saff Bus Station,,29.86368,31.3234,,,,
defeat.affirming.curving,Maasara - Autostrad,,29.913095200397,31.2979275588982,,,,
dislodge.opinion.awakes,Al Sherif Mosque - Al Manial,,30.0161800389869,31.224860029534,,,,
fingertip.ranked.tuck,Al Rawda Square - Al Manial,,30.0161232528991,31.2247693549744,,,,
dressing.chess.lawn,Basha Square,,30.020753700412,31.2254995141558,,,,
plus.fears.routs,Basha Square,,30.0207441750038,31.2255911046201,,,,
paraded.invoices.sunbeam,Dental Hospital - Al Manial,,30.0283414208362,31.2266802984214,,,,
roughest.witty.rope,KFC - Al Manial,,30.0280996220105,31.2265799152726,,,,
sandpaper.dealings.exacts,Al Kasr Al Aini Hospital,,30.0308221109439,31.2307407704149,,,,
cheerful.superbly.vipers,Kempinski Nile Hotel,,30.0378045476073,31.2296912433447,,,,
spinners.rave.flick,Shepheard Hotel,,30.0425031384258,31.2315307462296,,,,
losing.node.voting,Bostan Street,,30.0460305505284,31.2357241354958,,,,
pulled.wreck.peanut,Souq Bab Al Louk,,30.0451060478305,31.2396889378607,,,,
storyline.stalemate.grapevine,Noubar Street,,30.04458,31.24196,,,,
howler.comically.force,Saqr Quraish,,29.9860917666175,31.2887124556098,,,,
bonfires.arming.dunes,Masaken Al Kendy,,29.9918821368033,31.2930015110716,0,,,
valuables.grumble.spoils,Masaken Al Kendy,,29.9915895614732,31.2928672405829,0,,,
sleepers.slanting.riders,Al Mearag Mosque - Ring Road,Al Mearag Mosque 'Eastbound',29.9862990805745,31.3095078846708,,,,
ghosts.reserve.packets,Carrefour - Ring Road,,29.9841829796822,31.3180438926137,0,,,
sprinting.ticked.column,Shooting Club Pedestrian Tunnel,,29.9836779986543,31.3257383510925,,,,
theme.rhino.cunning,Shooting Club Pedestrian Tunnel,,29.9835239754436,31.3257265307335,,,,
buildings.presides.grin,Al Sayeda Aisha,,30.0243720973836,31.2574046638337,,,,
dignify.alarming.heats,Al Sayeda Aisha,,30.0245024785252,31.2572859020773,,,,
lies.fortnight.slime,Al Sayeda Zeinab,,30.0319004427164,31.2428871788906,0,,,
distanced.exists.unites,Cairo Security Directorate (Modereyet Amn Al Qahera),,30.0437926988667,31.2525540723064,,,,
earliest.dimes.forkful,Ali Basha Street,,30.03619,31.25495,,,,
lion.engulfing.earmarked,Al Soltan Hassan Mosque,,30.0313700807,31.2567198767526,,,,
uproot.strength.hindered,Al Soltan Hassan Mosque,,30.0310597992266,31.2575404204376,,,,
trudges.hers.nags,Tahrir Square,,30.0440266597108,31.2356940217388,,,,
golden.haggis.gearing,Tahrir Square,,30.0447701184783,31.2359700689986,,,,
unable.desktops.walked,Mohamed Naguib Metro Station,,30.04514908682,31.244527517634,,,,
wake.bathtubs.gurgling,Ramses,,30.0615490097836,31.2461178996178,0,,,
examine.strapping.retained,Ramses Railway Station,,30.0618811833005,31.2482766471106,,,,
conforms.refilled.scored,Abbaseya Bridge - Start,,30.0704010676536,31.2892489262544,0,,,
digs.parsnip.bill,Abbaseya Bridge - Start,,30.0705397084038,31.2893725932166,0,,,
crumb.milk.delved,Ramses Extension - Northside,,30.0639589320436,31.2975695376017,0,,,
roses.screaming.homes,Al Azhar Pedestrian Bridge,,30.0609323523233,31.3073629808239,0,,,
affair.selects.reprints,Unknown Soldier (Al Gondi Al Maghool),,30.0647001176139,31.3144938258188,,,,
living.thudding.weeks,Unknown Soldier (Al Gondi Al Maghool),,30.0645719962351,31.3146293574879,,,,
accordion.porch.elaborate,Rabaah Al Adaweya Mosque,,30.067236433676,31.3247318887335,0,,,
treatment.sober.playback,Awwal Abbas Al Akkad,,30.0684800852085,31.3360097869788,,,,
craziest.shifting.grad,Awwal Abbas Al Akkad,,30.0687077810307,31.3359507236189,,,,
renewals.irritable.squeaks,Al Ahly Sporting Club,,30.0716268801805,31.3544934853047,,,,
trim.poets.jotting,Ramses Extension - Southside,,30.0508097487746,31.3074902449906,,,,
unsigned.answers.eating,Ramses Extension - Southside,,30.0506807006812,31.30733,,,,
growl.bars.clouding,Ramses Extension - Southside,,30.0505191792151,31.3075215606989,,,,
acoustics.beak.youthful,Al Fath Superjet,,30.0461960919681,31.307709130717,0,,,
awoken.masterpiece.prominent,Al Gamaia Al Sharaia,,30.0476047156242,31.3139021637542,,,,
knots.extension.shook,Police Hospital - Al Shaheed Axis,,30.0389565379039,31.3278161661268,0,,,
magnitude.starlight.tuned,Al Mokhayam Al Daaem - Al Shaheed Axis,,30.047380751524,31.3140150124467,,,,
townhouse.supply.provider,Al Mosheer Tantawy Mosque,,30.020377449296,31.3779020669815,,,,
leotard.masterful.snug,Azhar University City for Boys,,30.0502342174398,31.3156943329613,,,,
point.unzipped.stable,Health Insurance Hospital - Nasr City,,30.0594586782963,31.3262673740198,0,,,
recall.everybody.refrained,Al Andalous Specialized Hospital,,30.04051,31.32974,,,,
bedding.straddled.alive,Al Eman Mosque,,30.0647216931038,31.3448342240509,,,,
having.with.sideboard,Al Eman Mosque,,30.0647011280648,31.3446241657316,,,,
tungsten.crypt.clustered,Al Serag Mall,,30.0512946262479,31.3465888689149,,,,
covenants.stream.warthog,10th District (Al Hay Al Asher) - Nasr City,,30.0491532904591,31.3792670966351,0,,,
rant.shakes.hoped,Al Sahel Police Department,,30.0839857765639,31.245259310913,,,,
workshop.rainwater.rejects,Saint Teresa Metro Station,,30.0891932465021,31.2452329182864,,,,
downs.sobbed.obviously,Al Sahel Youth Center,,30.0977107331449,31.25329633075,,,,
spine.exotic.shin,Al Fath Mosque,,30.0977689709054,31.2492675579005,,,,
status.solar.headrest,Abou Wafya Bridge,,30.0956711977679,31.2660214687497,,,,
sensitive.household.gains,Al Zawya Al Hamra,,30.0985768141674,31.2623609791308,,,,
clouding.dummy.sorters,Sekket Al Waili Street - Kobry Al Qobba,,30.08757,31.2898,,,,
warned.milky.them,Hadayek Al Qobba Station,,30.0871191908168,31.2896019801519,,,,
cure.talkative.vipers,Dar Al Moshah - Heliopolis,,30.0780145620626,31.3003487717389,,,,
riches.reputable.division,Dar Al Moshah - Heliopolis,,30.0780093236535,31.3002006422473,,,,
lawfully.rollers.showcases,Cairo Stadium,,30.0645873815056,31.3065007466123,,,,
suddenly.elbow.tonality,Cairo Stadium,,30.0644674705343,31.3062456876994,,,,
random.yelled.modes,Al Mazallat Metro Station,,30.1036699999999,31.2457600000002,,,,
revamped.bypassed.covers,National Authority For Military Production,,30.1087599754419,31.260827043494,,,,
terms.nightcap.meatball,Minerals & Refrigeration Center - Abboud,,30.1077401992035,31.260393349285,,,,
fixated.bland.rotations,Aswan Pedestrian Bridge - Shubra Al Kheima,,30.1107547967665,31.2758325406615,,,,
tonal.much.prosper,Aswan Pedestrian Bridge - Shubra Al Kheima,,30.1108970077435,31.2760351042919,,,,
revival.inspected.bars,Novartis Pharma - Al Zaytoun,,30.1054086968496,31.2916807995413,,,,
jars.blip.stoops,Novartis Pharma - Al Zaytoun,,30.1055516371998,31.2917220889812,,,,
obvious.swift.delusions,Ibrahim Anwar Mosque - Al Zaytoun,,30.1030898863889,31.3006500788305,,,,
trailers.grips.divisions,Saray Al Qobba,,30.0979988968793,31.3074982589255,0,,,
interlude.when.spoken,Teraat Al Gabal Street,,30.101801183024,31.305688499675,,,,
encourage.feuds.newsreel,Teraat Al Gabal Street,,30.101667672897,31.3056060824437,,,,
simulator.rabble.bidder,Al Thawra Hospital,,30.0907920882051,31.3257978773168,,,,
yours.bogus.deposits,Al Thawra Hospital,,30.0906791343994,31.325772944797,,,,
users.violinist.benched,Telecom Egypt Central - Almaza,,30.0865365881934,31.334988556802,,,,
scoots.vesting.tramps,Telecom Egypt Central - Almaza,,30.0863590725862,31.3348812191107,,,,
unhappily.congratulations.nicer,Samir & Ali - Al Thawra Street,,30.0826118873771,31.3428807372762,,,,
fever.riverbank.senior,City Stars Mall,,30.0735259484132,31.3391999174845,,,,
audibly.roving.instincts,City Stars Mall,,30.0735651893126,31.3388933135671,,,,
early.splash.cement,Al Galaa Bridge,,30.095943793468,31.3425481608626,,,,
blend.slant.coach,Al Galaa Bridge,,30.0959890653096,31.3422887406454,,,,
compiler.pancake.mouths,Al Nasr Sporting Club - Heliopolis,,30.1039116076516,31.3284573523263,,,,
pram.clocking.segregate,Adminstration Of Mobilization And Recruitment,,30.1064697200432,31.3240800803919,,,,
hands.allies.consults,Adminstration Of Mobilization And Recruitment,,30.1062500876235,31.3237993653477,,,,
galaxies.cricket.convinces,Alf Maskan,,30.1189095460917,31.3399407468095,0,,,
remembers.deputy.swoop,Alf Maskan,,30.1186862086,31.3407890021815,0,,,
additives.nest.shades,Arab Specialized Hospital - Gesr Al Suez,,30.1264613131776,31.3514662474796,,,,
senders.balloons.consults,Arab Specialized Hospital - Gesr Al Suez,,30.1262796150959,31.351323928082,,,,
tweed.tourist.heat,CTA Garage - Heliopolis,,30.1297229232024,31.3613341014501,0,,,
badminton.guitar.cakewalk,Obour Tunnel,,30.1639711704969,31.4790217152226,,,,
estimate.tomato.deck,Al Salam Exit - Ring Road,,30.1646404591781,31.3890931920744,,,,
tearfully.rust.lunch,New Marg Steps - Ring Road,,30.1634106529372,31.3414656472101,,,,
fool.buckling.squaring,New Marg Steps - Ring Road,,30.16363875982,31.3415935901824,,,,
dimension.submerged.targeted,Mostorod Bridge - Ring Road,,30.1633649662543,31.3040216661349,,,,
motorist.emptied.glove,Bahteem,,30.1575656912153,31.2809357718025,,,,
emperor.grinders.liberated,Bahteem,,30.1572459950073,31.2806935227601,,,,
slide.behalf.meanwhile,Bahteem,,30.1565896744838,31.280290696799,,,,
ranking.torso.retraced,Madinaty Exit - Cairo Fayed Desert Road,,30.1741172275685,31.554862577535,,,,
bared.roughest.tripled,Al Horreya Square,,30.1688801002315,31.6025910691872,,,,
petted.hardback.fatherly,Al Horreya Square,,30.1679475061989,31.6022366903276,,,,
airbase.perfume.perkily,8th District - Al Shorouq,,30.1638791955264,31.6054451506425,,,,
situates.speeches.blast,8th District - Al Shorouq,,30.1638995134793,31.6055773958878,,,,
dreamer.reflected.jetting,Al Nahda Square - Al Shorouq,,30.1612103639008,31.6234888878773,,,,
windmills.update.tailwind,Al Nahda Square - Al Shorouq,,30.1617780686776,31.6240186615287,,,,
assemble.file.snippets,Youth Housing - Al Shorouq,,30.1656934646423,31.6470179995786,,,,
inserting.hazelnuts.staging,Youth Housing - Al Shorouq,,30.1655290203383,31.647529998288,,,,
detect.wounds.bookings,Al Shorouq School,,30.166427588057,31.6515977060019,,,,
duos.trumpet.logged,Al Shorouq School,,30.1662695262577,31.6514604645795,,,,
crusaders.device.reconnect,Falcon School - Al Shorouq,,30.1356641622253,31.6639422994596,,,,
shrubbery.payback.asking,10th District Mini Bus Stop (Al Asher) - Al Shorouq,,30.1343247329747,31.6572025877165,,,,
equipping.offers.skills,Al Shorouq,,30.13893,31.65398,,,,
essay.sampling.gladiator,Sheraton Bus Station,,30.1058424018275,31.3864455041476,,,,
flamed.amphibian.loses,Center Cairo Governorate Information Networks,,30.0951180150307,31.3826811638553,,,,
liquid.fixture.name,Ideal Standard - Nasr Road,,30.0912070670817,31.3725329497243,,,,
sketching.puzzles.producers,Masaken Ain Shams,,30.13568,31.34992,,,,
changed.titles.ticking,Nour Al Islam Mosque - Shubra Al Kheima,,30.1159956361882,31.2844458945431,,,,
birthdays.paves.rocks,Abou Al Majd Center - Mostorod,,30.1269781173413,31.2878147919085,,,,
marine.bride.wagers,Al Shaarawy Street - Shubra Al Kheima,,30.1336705553019,31.2776445772408,,,,
worldwide.uncle.willing,Arab Engineering & Construction Company - Shubra Al Kheima,,30.1332873631638,31.2785065476393,,,,
president.promising.cowboys,Isko,,30.1511294017568,31.2773021397026,,,,
ulterior.bathtubs.charm,Abbasseya,,30.07252,31.28438,0,,,
dreading.lorry.scarecrow,Al Moassasa,,30.12281,31.24161,,,,
delighted.scarecrow.stun,Al Mostafa Mosque - 5th Settlement,,30.0058667649994,31.4543497982642,,,,
microchip.breakfast.baseline,Al Sayeda Aisha,,30.0284024303772,31.2578664877417,0,,,
tonal.shopper.campus,10th of Ramadan Station - Ismailiya Desert Road,,30.1477793217466,31.4208274701238,,,,
unpacked.sheds.inner,10th of Ramadan Station - Ismailiya Desert Road,,30.1478783322856,31.4207502225165,,,,
summit.clenching.doll,10th of Ramadan Station - Ismailiya Desert Road,,30.1479147848008,31.4204357180153,,,,
stole.makeup.giggles,10th of Ramadan Station - Ismailiya Desert Road,,30.1478087505848,31.4205158105899,,,,
carpeted.mammoths.homecare,Ataba,,30.05164,31.25057,,,,
approach.rich.saved,Ataba,,30.053366719716,31.2470490972032,,,,
file.apron.tweezers,Basateen,,29.99132,31.2825,,,,
surfacing.lengthen.courage,Bank Area (Bonook) - 5th Settlement,,30.0165499329255,31.4279647181291,,,,
vote.wager.genetics,Bank Area (Bonook) - 5th Settlement,,30.0164149414837,31.4279681916021,,,,
love.skinning.inch,Bank Area (Bonook) - 5th Settlement,,30.0161302529581,31.4279576130465,,,,
infinite.plankton.arrow,Al Hamd Square,,30.0019147687552,31.422936463321,0,,,
lake.arise.subjects,1st Settlement (Tagamoa Awwal) Hospital,,30.0721819670941,31.4529153001834,,,,
hardening.amphibian.hook,Future University in Egypt (FUE),,30.0256797174625,31.4900795713334,,,,
many.hillsides.hack,Future University in Egypt (FUE),,30.0252438048767,31.4905465172527,,,,
converter.supply.such,Gas - 5th Settlement,,30.0146112212752,31.4166084731434,,,,
ditching.natural.tensions,Helwan,,29.85348,31.33166,,,,
ponies.unloading.traffic,Imbaba,,30.07833,31.21773,,,,
appointed.september.respond,Madinat Al Talaba,,30.0698805329218,31.2025778372128,,,,
stages.lollipop.fronted,Masaken Zainhom,,30.0227714900692,31.2446286920822,,,,
oath.policy.surprises,Massalah Gadeeda (Matareya),,30.1278526933361,31.3011785550666,,,,
roughness.munched.overcomes,Mashaal Smart Village (Al Qarya Al Zakeya),,29.9921253682155,31.1302453469947,,,,
coverage.generally.magnitude,Masraweya,,30.02559,31.4755538599608,,,,
trespass.jetliner.sisters,Masraweya,,30.0253097522117,31.4755285266559,,,,
nicer.vowing.square,Al Mehwar Desert Road,,30.0467049406105,31.052000219128,,,,
shack.joked.began,Al Mehwar Desert Road,,30.0469865083525,31.052896650106,,,,
revised.bibs.helps,Misr 2000,,30.0385294804657,31.4389861853432,,,,
stretch.irritate.hides,Moneeb Konayyesa,,29.9854945093302,31.1974969898709,,,,
always.autumn.jiggle,Moneeb Konayyesa,,29.9853199718745,31.1974144494821,,,,
early.cheeses.limits,Moneeb Konayyesa,,29.9851899131216,31.197359956735,,,,
crisps.gardens.nooks,Traffic Department (Moroor) - Kattameya,,29.9734998844016,31.3899403099976,,,,
severe.shepherds.moon,Ommal Square - 5th Settlement,,29.9969339091211,31.4320326553757,0,,,
watched.exists.hazel,Police Academy - East,,30.04985,31.44219,,,,
stun.quiz.deadline,Police Academy - South,,30.03781175961,31.4096158531394,,,,
propelled.clearing.gobblers,Qalyub,,30.1811926069106,31.1998886060852,,,,
articulated.paintings.chops,Qawmeya Arabeya,,30.0954394447573,31.2043998025573,,,,
inches.slurred.aimed,Ramses,,30.0625628432768,31.243251968533,,,,
leotard.remotes.informer,Rehab Gate 6,,30.0532197420235,31.4902479515033,,,,
lifeboats.older.retina,Rehab Square,,30.0546098642732,31.475549863054,,,,
drops.stunt.arrived,Al Shabab Entrance - 5th Settlement,,29.9864810603627,31.4181582692857,,,,
search.sponsors.menswear,Al Shabab Entrance - 5th Settlement,,29.9867100543077,31.4179601047389,,,,
single.blink.gladiator,Shubra Al Kheima,,30.1230683786825,31.2456747998777,,,,
weedy.unfocused.next,Al Warraq,,30.1211401935204,31.2028945916021,,,,
dissolve.note.slurping,Al Warraq,,30.1214146111717,31.2016413828613,,,,
thickens.grace.solo,Al Warraq,,30.1213955522732,31.2014468695581,,,,
slanting.precautions.overlaps,Zahraa Madinet Nasr,,30.0548320477791,31.41320993838,,,,
bluff.rotate.unpacked,Heliopolis Sporting Club,,30.0900860735557,31.3157042770026,0,,,
mailings.viewer.force,Ceramica Square - Sheikh Zayed,,30.0381105007845,30.9786885733434,0,,,
gently.investors.twisty,Bashayer,,29.9672499132875,30.9128867398055,,,,
down.nightlife.unwanted,Hadayek Al Mohandeseen Gate - Sheikh Zayed,,30.0262082959776,30.9928896858271,0,,,
raced.croaking.slugs,Al Gezira - Sheikh Zayed,,30.025008020365,30.9910123052245,0,,,
ramps.noodle.pills,Durra Square,Durra Square '2pm',30.0226022475139,31.0052131270717,0,,,
waddle.windpipe.guests,Al Sewedy - Laylat Al Qadr,El-Sewedy 'Southbound',29.9479226106563,30.9071403551357,0,,,
betraying.amaze.outline,Asaer Al Fardous - 6th of October,,29.9510842976802,30.9003744068323,0,,,
shortage.tastier.tuck,Asaer Al Fardous - 6th of October,,29.9511863607612,30.9005151425991,0,,,
prelude.clarifies.yacht,Al Safwa Wood Trading - 6th of October,,29.9570423536735,30.8987920152424,0,,,
utensil.chatted.unusually,Al Safwa Wood Trading - 6th of October,,29.9571119532809,30.8987507745184,0,,,
compacts.campus.paused,Abou Allaam,,29.9585926970554,30.9010099110384,0,,,
masterpiece.retrial.float,Vodafone Square,Vodafone Square '6pm',29.9511194423077,30.9123402706623,0,,,
modifies.upper.waxing,Abou Allaam,,29.958508141623,30.9011003288709,0,,,
flagging.rear.sing,Raslan - Al Mehwar Al Markazi,Raslan 'Southbound',29.9527250671849,30.9145122188049,0,,,
jumbled.awoke.edgy,Al Wagih Center - 6th of October,Al Wagih Center 'Southbound',29.9626174610477,30.9013383126189,0,,,
breakaway.flickers.haystack,Oriental Weavers - Al Mehwar Al Markazi,Oriental Weavers 'Southbound',29.9544873265564,30.917192681184,0,,,
juggles.routines.overt,Al Wagih Center - 6th of October,Al Wagih Center 'Northbound',29.9624952195441,30.9014498315979,0,,,
weeps.plausible.uniform,Al Khazan Street,Al-Khazan 'Southbound',29.9563415481883,30.9201060793688,0,,,
misfits.quote.attic,Al Kabbani Furniture - 6th of October,El-Kabbany Furniture 'Souththbound',29.9573280998474,30.9215584189451,0,,,
handbook.circus.noisy,Al Nakheel Center - 6th of October,El Nakheel Center 'Southbound',29.9637674147096,30.9033998748485,0,,,
wharfs.circles.shun,Housing And Development Bank - Al Mehwar Al Markazi,Housing and Development Bank 'Southbound,29.9592442086744,30.9263391373281,0,,,
surfaces.glossed.whiplash,Al Mostafa Center - 6th of October,Al Mustafa Center 'Northbound',29.965230738283,30.9053543665772,0,,,
generals.influencing.bulky,Al Ezaby Pharmacy - Al Mehwar Al Markazi - 6th of October,El Ezaby Pharmacy 'Southbound',29.9642856600671,30.9331944665676,0,,,
neck.brisk.ignites,Al Mostafa Center - 6th of October,Al Mustafa Center 'Southbound',29.965112797081,30.9054453338042,0,,,
fries.elect.returns,Ragab Sons - Al Mehwar Al Markazi,Ragab Sons - El Mehwar El-Markazi 'Southbound',29.9668661469942,30.9362561861701,0,,,
rotations.blank.awestruck,Daewoo - 6th of October,Daewoo 'Eastbound',29.919987200941,30.8895024323445,0,,,
sway.approach.firepower,Misr Packing - 6th of October,Misr Packing 'Southbound',29.9204974614841,30.8930517525903,0,,,
aviators.kickbacks.groups,7th District Entrance - 6th of October,District 7 Entrance '9pm',29.9799783052469,30.9495586149078,0,,,
began.history.unheated,Dolphin Mall,Dolphin Mall 'Westbound',29.9786407996416,30.9555689715077,0,,,
slack.patrolled.treatable,Misr Packing - 6th of October,Misr Packing 'Northbound',29.9205592053894,30.8929785211166,0,,,
ritual.upwardly.poem,6th Of October City Authority,6th of October City Authority 'Westbound',29.9826317329499,30.9523001328542,0,,,
wager.cosmic.removers,Al Nour Mosque - 6th of October,Al-Nour Mosque 'Southbound',29.923307994935,30.935299091099,0,,,
tramps.rectangular.tunes,Al Tabba - 6th of October,Al Tabba 'Southbound',29.9911880996356,30.9551238607849,0,,,
flap.thud.rudder,Vodafone Square,Vodafone Square '12pm',29.95147,30.91214,0,,,
excellent.mats.manhole,Raslan - Al Mehwar Al Markazi,Raslan 'Northbound',29.9528293896247,30.914406624904,0,,,
inherit.ultra.small,Aswan Square - 6th of October,Aswan Square 'Northbound',29.9637609065542,30.9144956159402,0,,,
submit.dared.seriously,Misr University,Misr University 'Southbound',29.9975297823184,30.9649387104725,0,,,
requires.hikes.sampled,Aswan Square - 6th of October,Aswan Square 'Southbound',29.9636573905142,30.9145453333106,0,,,
precluded.calculate.doubt,Dar Al Foad Hospital - 6th of October,Dar Al Foaad Hospital 'Southbound',29.9990068710119,30.9671960242074,0,,,
yards.script.worlds,Ahram Canadian University,Ahram Canadian 'Northbound',29.9354086078824,30.8811811877577,0,,,
coil.beside.needed,Bank Area - 6th of October,Bank area 'Westbound',29.9460291051194,30.897866521311,0,,,
rewrites.victory.remake,Bank Area - 6th of October,Bank area 'Eastbound',29.9461585468299,30.897769005884,0,,,
appointed.opposing.movie,Red Kiosk - 6th of October,Tahrir Road - Street 2 'Northbound',29.965972509668,30.9179171694792,0,,,
alcove.ascendant.scowls,Zayed 2000,Zayed 2000 Me7war 'Eastbound',30.0194367227058,31.008766217582,0,,,
galleries.personal.enveloped,Red Kiosk - 6th of October,Red Kiosk 'Southbound',29.9658762620645,30.9179896239104,0,,,
because.ownership.teaching,Ragab Sons - 7th District - 6th of October,Ragab Sons 'Westbound',29.9782433529744,30.9358659531153,0,,,
smile.thatched.windy,Ragab Sons - 7th District - 6th of October,Ragab Sons 'Eastbound',29.9781539520506,30.9359256203523,0,,,
pigment.spins.attic,Blue Bells School - Al Motamayez,Blue Bells School 'Westbound',29.9855698805134,30.975490294918,0,,,
candidate.remodel.tensions,Blue Bells School - Al Motamayez,Blue Bells School 'Eastbound',29.985639774576,30.9755897623018,0,,,
appoints.hence.appoints,Al Motamayez,Al-Motamayyez 'Eastbound',29.9822886615188,30.9791205010181,0,,,
crafts.swooned.dentistry,Sheikh Zayed Specialized Hospital,Sheikh Zayed Specialized Hospital 'Westbound',30.0329278545574,31.0033272221028,0,,,
firmer.robot.challenge,Sheikh Zayed Specialized Hospital,Sheikh Zayed Specialized Hospital 'Eastbound',30.0314252879996,31.0038204941256,0,,,
pods.panic.amends,Salamtak Labs - Dolce,Salamtak Labs 'Southbound',29.9341792420672,30.9222853986612,0,,,
ponies.choirs.trembles,Al Hedaya Mosque,,29.9280247082147,30.9432096403198,0,,,
pokes.multiply.hoot,Al Kholafaa Al Rashedeen Mosque - 6th of October,Al Kholafaa  Al Rashedeen Mosque 'Southbound',29.950290154518,30.9314640688201,0,,,
quaking.item.stale,Al Kholafaa Al Rashedeen Mosque - 6th of October,Al Kholafaa Al Rashedeen Mosque 'Northbound',29.9504049061329,30.9314049551146,0,,,
snack.suppose.succumbs,Abu Bakr Al Siddiq Mosque - 6th of October,Mosque Abu Bakr Al-Siddiq 'Southbound',29.9606031687204,30.9481303868824,0,,,
prowling.sober.wider,Abu Bakr Al Siddiq Mosque - 6th of October,Mosque Abu Bakr Al-Siddiq 'Northbound',29.9606759677448,30.9480059167902,0,,,
analogy.refusals.shadowed,Zayed 2000,Zayed 2000 Me7war 'Westbound',30.0198501422106,31.0083774576705,0,,,
presumes.leave.verge,Ceramica Cleopatra - Sheikh Zayed,Ceramica Cleopatra 'Westbound',30.0254509289739,31.0169533938038,0,,,
elections.outnumber.smaller,Al Rashidi Al Mizan - Industrial Zone 3,Industrial Zone 3,29.9298198022928,30.8922800317325,0,,,
cope.glitter.subtitle,Masaken Othman,Masaken Othman 'Westbound',29.9190136170542,30.9393311319041,0,,,
storming.limits.refilled,Al Hedaya Mosque,,29.9280687950046,30.9430831745272,0,,,
hamsters.origin.remake,Masaken Othman,Masaken Othman 'Eastbound',29.91896216092,30.9394733471131,0,,,
motivator.decks.happy,Total Gas Station - 6th of October,,29.9325799576868,30.8771099884791,,,,
static.tactical.slide,Ceramica Cleopatra - Sheikh Zayed,Ceramica Cleopatra 'Westbound' Service Road,30.0258810111399,31.0165185368958,0,,,
tangible.marsh.majority,Americana Plaza - Sheikh Zayed,American Plaza '1',30.0282958026525,31.0125004933688,0,,,
evenly.hatter.marketing,Durra Square,Durra Square '8pm',30.0219984576186,31.0043732414732,0,,,
teardrop.headlines.cares,Sheikh Zayed Islamic Center,Sheikh Zayed Islamic Center '8pm',30.0280601260901,30.9997885472384,0,,,
crumble.outsmart.guru,Seoudi Supermarket - Sheikh Zayed,Seoudi Supermarket 'Eastbound',30.02983,30.99509,0,,,
punters.hothouse.sunroof,Al Safa Square - Sheikh Zayed,El-Safa Square '6pm',30.0303710317042,30.9898755579579,0,,,
lavished.third.exhales,Cairo Uiversity Square (Ceramica Prima) - Sheikh Zayed,Cairo University Square '8pm',30.0351802984887,31.0175800096176,0,,,
basis.hitters.rural,Zayed 2000 Gate 3,,30.0190698578574,30.9972800684996,0,,,
political.panels.demanding,16th District (Hay Al Sades Ashr) - Sheikh Zayed,,30.0531890967476,30.9661894395545,,,,
guitars.lyrics.lighten,Tara Compound Entrance - Sheikh Zayed,Tara Compound Entrance 'Southbound',30.0401830534858,31.013919243636,0,,,
neatly.goals.hoaxes,Al Nozha Street - Street 30 - Sheikh Zayed,El-Nozha - Street 30 'Northbound',30.0419384252555,31.0121071239511,0,,,
linen.barbarian.ghost,16th District (Hay Al Sades Ashr) - Sheikh Zayed,,30.0532735679248,30.9661638532509,,,,
mimed.flaking.overruns,Al Nozha Street - Al Horreya - Sheikh Zayed,El Nozha Street - Al Horreya 'Southbound' (2),30.044949537064,31.0094213473837,0,,,
eagle.tadpoles.caps,Sheikh Zayed General Hospital Southside,Sheikh Zayed General Hospital Southside 'Westbound' (2),30.0378829055233,31.007232630814,0,,,
reflector.wriggle.beats,Magda Square,Magda Square '12pm',29.9753238652077,30.9423379646304,,,,
rods.smart.activates,Sheikh Zayed General Hospital Northside,Sheikh Zayed General Hospital Northside 'Eastbound',30.0405952012418,31.007759821828,0,,,
livid.chapels.emailed,11th District (Hay Al Hadi Ashr) Exit - Sheikh Zayed,,30.0490703710732,30.9765699853777,,,,
crawled.grief.gained,11th District (Hay Al Hadi Ashr) Exit - Sheikh Zayed,,30.0490622041448,30.9767199569039,,,,
fool.damp.ghosts,Al Nozha Street - Al Horreya - Sheikh Zayed,El Nozha Street - Al Horreya 'Northbound',30.0450761671161,31.0096516874688,0,,,
dirt.somewhere.unzips,Zayed Boys Secondary School,Zayed School 'Eastbound',30.0499251357054,30.9849,0,,,
nametag.tadpole.touchy,11th District (Hay Al Hadi Ashr) Exit - Sheikh Zayed,,30.0498606497919,30.9769402964618,,,,
pylons.price.electrode,Ahram Canadian University,Ahram Canadian 'Northbound',29.9352861844593,30.8812627070297,0,,,
collision.beard.standing,Health Affairs Directorate - 6th of October,St 23 - St 30 'Eastbound',30.045910092609,30.9698142490421,0,,,
explores.amps.string,Medicare - Sheikh Zayed,The Clinic 'Southbound'',30.0473298513505,30.9766878481298,0,,,
suits.crossword.bumpy,Amr Ibn Al Aas School,Amr Ibn El Aas 'Eastbound'',30.0493001046541,30.982041052072,0,,,
items.seatbelt.prawn,Al Rabwa - Sheikh Zayed,Al Rabwa '12',30.0565493489354,30.9995749304153,0,,,
item.however.stylists,Islamic Center East - Sheikh Zayed,Shabab St 'Westbound',30.0496253070354,30.9783739074049,0,,,
angers.clutches.relating,Islamic Center West - Sheikh Zayed,Mogamaa Islamy 'Westbound',30.0508270594865,30.97694,0,,,
spearing.tribal.subplot,Al Nozha Street - Al Horreya - Sheikh Zayed,El Nozha Street - Al Horreya 'Southbound',30.0458461907275,31.0086347112273,0,,,
able.womb.earlobes,Rihana Plaza - Sheikh Zayed,Rihana Mall ' Westbound',30.0518041467577,31.0035652613197,0,,,
dock.schooling.stud,Al Rabwa - Sheikh Zayed,Al Rabwa '7',30.0561974202344,30.9996928329323,0,,,
backfired.screamed.readings,Islamic Center West- Sheikh Zayed,Mogamaa Islamy 'Southbound',30.0507876531558,30.9767338748702,0,,,
eliminate.rashers.rattler,Health Affairs Directorate - 6th of October,St 23 - St 30 'Westbound',30.0459781395301,30.9698168605737,0,,,
picnic.padding.skim,Zayed 2000,Zayed 2000 'Square'',30.0196896712705,31.0071296840594,0,,,
minivans.brotherly.tuxedos,Rihana Plaza - Sheikh Zayed,,30.0519266439934,31.0037803742864,0,,,
financial.machinery.winks,Sheikh Zayed Islamic Center,Sheikh Zayed Islamic Center '2pm',30.0282795407685,31.0003091623333,0,,,
birdcage.sandals.concerned,Al Nozha Street - Street 30 - Sheikh Zayed,El Nozha Street - Street 30 'Southbound',30.0419379131922,31.0123920259138,0,,,
villager.ejects.warthog,Seoudi Supermarket - Sheikh Zayed,Seoudi Supermarket 'Westbound',30.0300085943217,30.9951038158518,0,,,
pounces.wallet.being,Al Safa Square - Sheikh Zayed,El-Safa Square '1pm',30.0307586582493,30.9900882357608,0,,,
flamingo.props.warns,Sheikh Zayed General Hospital Southside,Sheikh Zayed General Hospital Southside 'Westbound' (1),30.0378314886708,31.0075908485577,0,,,
business.stupidly.formed,CIC - Sheikh Zayed,CIC 'Westbound',30.0450005968535,30.9910136765077,0,,,
scatter.newer.collides,Diamonds Mall - 6th of October,Diamonds Mall 'Northbound',29.9768336638987,30.9448381499946,,,,
walled.spouting.pushover,8th District (Hay Al Thamen) - 6th of October,8th District - 9th District 'Southbound',29.9742100221521,30.9305499817025,,,,
remotes.parade.reverted,Family Land - 6th of October,Family Land,29.9777804344188,30.9279587616816,,,,
digested.jacuzzi.composts,Gamal Abd Al Nasser Street - Bashayer,Gamal Abd Al Nasser Street - Bashayer 'Northbound',29.9700410843365,30.9160016089497,,,,
coil.soups.pounding,Gamal Abd Al Nasser Street - Bashayer,Gamal Abd Al Nasser Street - Bashayer 'Eastbound',29.9699351291379,30.916088786053,,,,
guideline.promoting.tinsel,Al Fayrouz Center - 6th of October,Hadayek El Fayrouz Center 'Northbound',29.9574699022867,30.9422803567134,,,,
level.blazing.ballpoint,Al Fayrouz Center - 6th of October,Hadayek El Fayrouz Center 'Southbound',29.9573784012797,30.9423343941122,,,,
dock.stylist.imparting,Industrial School - 6th of October,Industrial School 'Northbound',29.948058889529,30.9277808586543,,,,
winemaker.toned.emeralds,Industrial School - 6th of October,Industrial School 'Southbound',29.9479628838341,30.9278569267775,,,,
mulls.island.reverses,Al Muluk - 6th of October,El-Muluk 'Endpoint Southbound',29.9423910683522,30.9197207049934,,,,
juggles.perused.broadens,Al Tawheed Wal Nour - Al Hossary,Al Tawheed & El Noor 'Northbound',29.9688900844496,30.9391488031584,,,,
expel.plotting.vowing,Ragab Sons - Al Mehwar Al Markazi,Ragab Sons -Al Mehwar Al-Markazi 'Northbound',29.9669517167652,30.9361866071184,,,,
unit.yours.positives,Housing And Development Bank - Al Mehwar Al Markazi,Housing & Development Bank 'Northbound',29.959351306731,30.9262705749375,,,,
lousy.undertook.crush,Al Nagda Square,Al-Nagda '12pm',29.9614311603821,30.9293344505976,,,,
swelling.survivor.situates,Al Nagda Square,Al-Nagda '6pm',29.9610209866615,30.9292839405733,,,,
invented.purses.fatigued,Al Kabbani Furniture - 6th of October,El-Kabbani Furniture 'Northbound',29.9574351432584,30.9214724814886,,,,
simulator.touches.microfilm,Tiba Grand Mall,Tiba Grand Mall 'Southbound',29.94920170919,30.9090876093616,,,,
pocketed.clip.incorrect,Tiba Grand Mall,Tiba Grand Mall 'Northbound',29.9493249536932,30.9090142592158,,,,
cleans.deal.broadens,Al Sewedy - Laylat Al Qadr,El-Sewedy 'Northbound',29.9480517448032,30.9070345380546,,,,
reclaim.awoke.cupboards,Oriental Weavers - Al Mehwar Al Markazi,Oriental Weavers 'Northbound',29.954614830263,30.9171216164269,,,,
tomato.alpha.crafted,Laylat Al Qadr Entrance,Laylat Al-Qadr Entrance 'Northbound',29.9490380597557,30.902219137543,,,,
additives.expecting.fraction,Anwar Al Sadat Square,Anwar Al-Sadat Square '9pm',29.9538495694741,30.9094201800315,,,,
radio.feasts.fussy,Anwar Al-sadat Square,Anwar Al-Sadat Square '3pm',29.9537998890932,30.9100400080446,,,,
streak.blogging.highlighted,Bashayer Entrance,Bashayer Entrance 'Northbound',29.9713454558245,30.9180030966912,,,,
backdrop.marginal.hiring,Bashayer Entrance,Bashayer Entrance 'Southbound',29.9712328914784,30.918071621409,,,,
oiled.afternoon.rocked,7th District Entrance - 6th of October,7th District Entrance 'Northbound',29.977450321436,30.9405796258562,,,,
diver.fastening.closes,7th District Entrance - 6th of October,7th District Entrance 'Southbound',29.9773759083627,30.9404633907943,,,,
witless.menswear.weekend,Farghali Real Estate - Bashayer,Farghali Real Estate 'Northbound',29.9670598157543,30.9090439737146,,,,
science.exits.looks,Farghali Real Estate - Bashayer,Farghali Real Estate 'Southbound',29.9669136633874,30.9090474191087,,,,
loafing.merchant.laughs,Emad Center - 6th of October,Emad Center 'Northbound',29.9612859673942,30.8993259333634,,,,
dolphin.poster.fermented,Emad Center - 6th of October,Emad Center 'Southbound',29.9611756252541,30.8994227820356,,,,
believer.young.unrated,Kawkab Al Sharq Cafe - Bashayer,Kawkab Al Sharq Cafe 'Westbound',29.9687398519564,30.9145391243492,,,,
airfields.prices.yours,Kawkab Al Sharq Cafe - Bashayer,Kawkab Al Sharq Cafe 'Eastbound',29.9686756602442,30.914652300947,,,,
dividers.domestic.waltzed,Al Hegaz Mall - 6th of October,Al-Hegaz Mall 'Westbound',29.9641958234112,30.950960452085,,,,
stream.spectacle.haggis,Al Hegaz Mall - 6th of October,Al-Hegaz Mall 'Eastbound',29.9642262832481,30.951114956172,,,,
panthers.accordion.knees,Higher Technological Institute - 6th of October,Roushdy Pharmacy - Tahrir Road 'Northbound',29.9558717320849,30.9398378463162,,,,
unions.handfuls.zipped,Higher Technological Institute - 6th of October,Roushdy Pharmacy - Tahrir Road 'Southbound',29.9557651327858,30.9398985162695,,,,
diverged.binders.trickled,Al Ezaby Pharmacy - Al Mehwar Al Markazi - 6th of October,El Ezaby Pharmacy 'Northbound',29.9643707830751,30.9330466686934,,,,
diverged.embellish.lease,Al Central - Laylat Al Qadr,Al-Central 'Eastbound',29.9442094902223,30.9064604267492,,,,
goodness.boards.bribing,Al Central - Laylat Al Qadr,Al-Central 'Westbound',29.9441463766484,30.9063334182003,,,,
lousy.jukebox.envy,Yellow Kiosk - 6th of October,Yellow Kiosk 'Westbound',29.9341646885555,30.914881839776,,,,
forehand.opponent.shots,Yellow Kiosk - 6th of October,Yellow Kiosk 'Eastbound',29.9342355123614,30.9149882613672,,,,
jumbo.probable.relatives,Real Estate Registration Mission - 6th of October,Real Estate Registration Mission - 6th of October 'Westbound',29.9376603050184,30.9118989249439,,,,
bleaching.grocers.shapeless,Real Estate Registration Mission - 6th of October,Real Estate Registration Mission - 6th of October 'Eastbound',29.9377211725395,30.9120149306074,,,,
puppy.partly.looked,Export Development Authority,Export Development Authority 'Eastbound',29.941218740414,30.9089787801355,,,,
mountain.swims.beats,Export Development Authority,Export Development Authority 'Westbound',29.9411592285114,30.9088811920668,,,,
shred.rekindle.modules,6th District - 6th of October,District 6 Terminal 'Soutbound',29.9313719736872,30.9172559944979,,,,
retain.players.dislodge,6th District - 6th of October,District 6 Terminal 'Northbound',29.93153,30.91736,,,,
gossiped.museum.widen,Salamtak Labs - Dolce,Salamtak Labs 'Northbound',29.9342830703007,30.9222170843823,,,,
sizzled.trustees.riskiest,Dolce,Dolce 'Southbound',29.935681319158,30.924421404929,,,,
devours.sprain.cyber,Kan Kan - 12th District (Hay Al Thani Ashr) - 6th of October,District 2 'Eastbound',29.9556409012855,30.896664489447,0,,,
riverside.cheat.panicking,St. Mary and St. Mark Church - 6th of October,The Virgin Mary & Mar Morcos Church 'Northbound',29.959688354763,30.9185476842766,,,,
melt.zebra.wheat,St. Mary and St. Mark Church - 6th of October,The Virgin Mary & Mar Morcos Church 'Eastbound',29.9595859376086,30.9186741281645,,,,
resort.breakaway.dishing,Kan Kan - 12th District (Hay Al Thani Ashr) - 6th of October,District 2 'Westbound',29.9556399673154,30.8964600650735,0,,,
incurs.addicted.states,City Scape Mall - 6th of October,City Scip Mall '3pm',29.9637912188331,30.9273145485662,,,,
necklaces.vies.cartoons,Mazar Mall,,30.0534029470539,30.9618178912493,0,,,
hydration.rugs.worry,City Scape Mall - 6th of October,City Scip Mall '9pm',29.9639006733157,30.926686724056,,,,
landlords.sandpaper.bells,Etaby Center,Innaby Center 'Westbound',30.0460205074926,30.9669293565985,0,,,
dozens.unframed.target,Al Zohour Nursery - Sheikh Zayed,El Zohour Nursery 'Eastbound',30.0471848565666,30.9737913939975,0,,,
quitter.free.incline,Culture & Science City - 6th of October,Thaqafa & Eloum 'Northbound',29.9562933781659,30.9133166884714,,,,
lucky.landlords.reshaping,Culture & Science City - 6th of October,Thaqafa & Eloum 'Sounthbound',29.9561664750003,30.9134178426419,,,,
mandolin.swatted.rock,Medicare - Sheikh Zayed,The Clinic ''Eastbound',30.0471245276876,30.9765276353763,0,,,
loaders.duplicity.approach,Islamic Center East - Sheikh Zayed,,30.0492791668283,30.9787039589077,0,,,
buckling.soup.cheat,Akhbar Al Yom Academy,Akhbar El-yom Academy 'Northbound',29.9410973393076,30.8899689695705,,,,
reporters.racks.bank,Akhbar Al Yom Academy,Akhbar Al-yom Academy 'Southbound',29.9409508259659,30.8900545099007,,,,
hedge.scrap.appoints,Amr Ibn Al Aas School,Amr Ibn El Aas 'Westbound'',30.0494556294968,30.981820269368,0,,,
canine.streetcar.shudders,Kheir Zaman - Al Mehwar Al Markazi,Tabarak for Children Hospital 'Southbound',29.9719999273765,30.9378698784046,,,,
specifies.tiles.really,Zayed Boys Secondary School,,30.0510337035209,30.9853738023713,0,,,
wordplay.unfocused.sweetened,Kheir Zaman - Al Mehwar Al Markazi,Tabarak for Children Hospital 'Northbound',29.9722138810888,30.9377436782322,,,,
during.bleat.streaking,Al Yasmine Compound Gate 3 - Sheikh Zayed,,30.0526578044837,30.9910057246304,0,,,
grinders.pollution.named,Diamonds Mall - 6th of October,Diamonds Mall 'Southbound',29.976738816073,30.9449483152314,,,,
loaning.swelling.stud,7th District Entrance - 6th of October,District 7 Entrance '3pm',29.980369878482,30.9501202457635,,,,
employers.query.reinforce,6th Of October City Authority,6th of October City Authority 'Eastbound',29.9827368333694,30.9524807466339,,,,
eyeful.scaffold.crashing,Sheikh Zayed General Hospital Southside,Sheikh Zayed General Hospital Northside 'Eastbound',30.0376992015277,31.0069864259705,0,,,
gallons.fluctuate.refreshed,Sheikh Zayed General Hospital Northside,Sheikh Zayed General Hospital Northside 'Eastbound',30.040448021492,31.0078535429027,0,,,
shady.resources.adjust,Tara Compound Entrance - Sheikh Zayed,Tara Compound Entrance 'Northbound',30.040063232379,31.0137175273077,0,,,
earphones.splits.request,Misr University,Misr University 'Northbound',29.9977606504479,30.9648001409576,,,,
youths.eternity.fastening,Cairo Uiversity Square (Ceramica Prima) - Sheikh Zayed,Cairo University Square '2pm',30.0354009445696,31.0180257335213,0,,,
scouts.commit.pausing,Dar Al Foad Hospital - 6th of October,Dar Al Foaad Hospital 'Northbound',29.9992014418515,30.9670360095564,,,,
gladiator.sudden.fills,Laylat Al Qadr Entrance,Laylat Al-Qadr Entrance 'Southbound',29.948932835465,30.9023010895189,,,,
dizzy.nerve.mows,Universal - 6th of October,Universal 'Northbound',29.9257523400712,30.9009571613794,,,,
muscular.mocked.scripted,Universal - 6th of October,Universal 'Southbound',29.925686297936,30.9010075941941,,,,
driftwood.jeering.migrants,Al Massalah,Al-Massalah 'Northbound',29.9276402296034,30.903865307459,,,,
trailing.applauded.unto,Al Massalah,Al-Massalah 'Southbound',29.9275803770258,30.9039204806266,,,,
poker.unable.factored,Board of Trustees (Magles Al Omanaa) - 6th of October,Board of Trustees of 6th of October City 'Slow road',29.994134489723,30.9600762019428,,,,
poems.examine.shuffles,Dolphin Mall,Dolphin Mall 'Eastbound',29.9788762656367,30.9557782867103,,,,
unicorns.tall.palm,6th Of October University,6th of October University 'Northbound',29.9758302335578,30.9497707564067,,,,
gears.shifters.acted,Al Hekma Pharmaceutical Company - 6th of October,Al-Hekma 'Northbound',29.9336362667641,30.8906661591896,,,,
cycles.next.solicitor,6th Of October Public Library,6th of October Public Library 'Northbound',29.986109797745,30.9431404764948,,,,
took.confused.goodbyes,6th Of October Public Library,6th of October Public Library 'Southbound',29.9860554740668,30.9430287359418,,,,
bikers.amphibian.passion,7th District (Hay Al Sabea) - 6th of October,Mall Al-Khalil 'Eastbound',29.9832712523016,30.9394912405096,,,,
topping.eternally.thigh,Small Industries Association - Al Hegaz Street - 6th of October,Small Industries Association 'Northbound',29.9808027810651,30.9464306322573,,,,
spooned.latitudes.drive,Small Industries Association - Al Hegaz Street - 6th of October,Small Industries Association 'Southbound',29.9807004160917,30.9465109473415,,,,
immune.toenail.teachers,Magda Square,Magda Square '6pm',29.9748780342111,30.9424357263113,,,,
assess.muddy.rings,Magda Square,Magda Square '3pm',29.9752328387682,30.942763717257,,,,
rinsed.noses.thinnest,Magda Square,Magda Square '12pm',29.975630912462,30.9421791219597,,,,
diagram.accent.ultra,Ariel - Industrial Zone 4,Ariel - Industrial Zone 4 'Northbound',29.9380476280724,30.8853259815369,,,,
curtains.spades.scrubber,Ariel - Industrial Zone 4,Ariel 'Southbound',29.9379447979705,30.8854156799405,,,,
logo.shudders.motor,Al Hoda Factory - 6th of October,El Hoda Factory Southbound,29.9115239604986,30.8978514645527,,,,
burden.swarm.heeding,Al Hoda Factory - 6th of October,El Hoda Factory Northbound,29.911602093046,30.8977992812107,,,,
strumming.warnings.snoozing,6th Of October University,6th of October University 'Southbound',29.9756960985167,30.9498531314299,0,,,
exhaling.stapled.enormous,Al Tabba - 6th of October,Al Tabba 'Northbound',29.9914065923686,30.9549693026035,,,,
move.permit.entertainer,Board of Trustees (Magles Al Omanaa) - 6th of October,Board of Trustees of 6th of October City 'Northbound',29.9944797656835,30.9597808849632,,,,
typist.event.scooters,Al Motamayez Entrance,Al-Motamayez District Entrance 'Northbound',29.9959249916756,30.9619947368031,,,,
skid.alleges.packets,Ceramica Cleopatra - Sheikh Zayed,Ceramica Cleopatra 'Eastbound',30.0250565709996,31.0173651273227,0,,,
cherish.pops.polishing,Royal City Gate - Sheikh Zayed,,30.0330609185804,31.0287216620314,0,,,
frock.hurry.snowmen,Al Yasmine Compound Gate 3 - Sheikh Zayed,,30.0523973126618,30.9909616919923,0,,,
making.eruptions.half,Al Zohour Nursery - Sheikh Zayed,El Zohour Nursery 'Westbound',30.0472803161337,30.9738542801081,0,,,
rejoins.yourself.trade,Sheikh Zayed Specialized Hospital,Sheikh Zayed Specialized Hospital 'Westbound',30.0331259199643,31.0031884415796,0,,,
exam.pinks.youths,Etaby Center,Innaby Center 'Eastbound',30.0459494199804,30.9669094085951,0,,,
waged.owes.acid,American School - Sheikh Zayed,,30.0331378846553,30.9881322726329,,,,
paddle.stole.hardback,American School - Sheikh Zayed,,30.0329647017316,30.9880355256381,,,,
officials.section.jabs,Hyper - Sheikh Zayed,Hyper One 'Microbus Terminal',30.0289213650382,31.0216187762557,0,,,
horizons.uncle.capillary,Youth Club - Sheikh Zayed,,30.0436413703353,30.9767201971507,,,,
shifts.papers.frizz,Faculty of Engineering Cairo University - Sheikh Zayed,Engineering School 'Southbound',30.034032219076,31.0106803586386,0,,,
slurred.each.revamped,Faculty of Engineering Cairo University - Sheikh Zayed,Engineering School 'Northbound',30.0340624109371,31.0104187067692,0,,,
relocated.flick.locating,Youth Club - Sheikh Zayed,,30.0436629284748,30.9769061361042,,,,
questions.clashing.order,Al Juman,Al Juman 'Westbound',30.0343702172553,30.9827897989711,0,,,
worlds.parsnips.soft,Azhari Institute - Sheikh Zayed,,30.0373999942187,31.0093299518672,,,,
goals.shred.axed,Al Juman,Al Juman 'Eastbound',30.0339459329484,30.9826015185289,0,,,
youth.blotchy.tarnished,Badr - Sheikh Zayed,,30.0553701775619,30.9594197623911,,,,
tailors.servants.essays,Maahad - 5th Settlement,,29.9933479810209,31.4344137021474,0,,,
legs.gala.quilting,Akhnaton Square,,30.00722,31.41188,,,,
elbowing.roof.establish,Al Shabab Entrance - 1st Settlement,,30.052434121988,31.4523652094652,0,,,
army.slug.commenced,1st Settlement City Authority,,30.0521150119736,31.4481476242503,,,,
skate.windy.trainer,Wadi Degla Sporting Club - New Cairo,,30.052565,31.426701,,,,
joints.trials.eternity,Wadi Degla Sporting Club - New Cairo,,30.052425764646,31.4267321057706,,,,
cheering.finer.tropic,Al Tabba - 6th of October,Al Tabba 'Southbound',29.991046081466,30.9552516077506,0,,,
twitchy.drummers.ranks,Al Motamayez Entrance,Al Motamayez District Entrance 'Southbound',29.9956581719529,30.9623409604564,0,,,
documents.soup.item,Misr University,Misr University 'Southbound',29.9974323574684,30.9650435773846,0,,,
presumes.bluntly.beaten,Dar Al Foad Hospital - 6th of October,Dar Al Foaad Hospital 'Southbound',29.9988747709633,30.9673256778443,0,,,
blast.enabling.forgives,Mall of Arabia,Mall of Arabia 'Southbound',30.0024182726828,30.9727431716058,,,,
apes.revolts.reliving,Mobil - Mall of Arabia,Mobil Gas Station 'Southbound',30.0042083311373,30.9756297346892,,,,
glorious.weaned.escapades,Nile University,Nile University 'Southbound',30.0089294058422,30.9853680103724,,,,
sizes.prelude.bleaker,Hyper - Sheikh Zayed,Hyper One - Me7war 'Eastbound',30.0294325220489,31.0240393311721,0,,,
cutaway.hobbyists.masts,Hyper - Sheikh Zayed,Hyper One - Me7war 'Eastbound',30.0298154924382,31.0236808769995,0,,,
firework.fended.occur,Royal City Gate - Sheikh Zayed,,30.0328378219162,31.0290238701775,0,,,
disengage.heavy.sofa,Royal City Gate - Sheikh Zayed,,30.0327433663241,31.0291344335572,0,,,
brain.swung.culling,Maasara - Autostrad,,29.9131613071199,31.2980877192732,,,,
onlookers.clown.loads,CIB - South Teseen Street,,30.0165218664855,31.4230335859906,0,,,
thumb.finally.alarmed,Wataneya Gas Station - Ring Road - Kattameya,,29.9865187233672,31.3093820443761,0,,,
irritable.swells.text,Shooting Club Pedestrian Tunnel,,29.983353870589,31.325705557351,,,,
uniform.neatly.guideline,Windrose Academy,,29.9795343558571,31.3515927442956,0,,,
splints.received.activism,Total Gas Station - Kattameya Entrance,,29.9836318816122,31.366321785858,0,,,
scrambles.flukes.spaces,Abd Al Moneim Riad,,30.0494792257605,31.2319326651924,,,,
quit.applies.ribcage,Abd Al Moneim Riad,,30.0501168086891,31.2338794067732,,,,
hurricane.deferring.ideas,Abou Al Reesh,,30.0285078262355,31.236740764297,,,,
income.workroom.hired,Ahmed Helmy,,30.0644877532433,31.2457678697372,,,,
unloads.dialects.bucked,Al Sayeda Aisha,,30.0258108580234,31.2571400121023,,,,
deflation.shun.swear,Al Souq Al Qadeem,,29.9299797473865,30.915089376097,,,,
trickster.emailed.edgy,Arabella Square,,29.9855399997828,31.4299300372527,,,,
manage.snails.bulky,10th of Ramadan (Asher Men Ramadan) Station,,30.1524801403231,31.4096102037361,,,,
copiers.fortress.apartment,Awwal Makram Ebeid,,30.069560572034,31.3437236020622,,,,
careful.gains.deodorant,Basateen,,29.9911397822037,31.2812298454394,,,,
humid.truly.headless,Bank Area (Bonook) - 5th Settlement,,30.0169633434423,31.4278493283966,,,,
invisible.asleep.dame,Dandy Mall,,30.0604967495841,31.0288132000749,,,,
chucks.slices.seagulls,Dawaran Shubra,,30.0805214520306,31.2457213311817,,,,
boil.strategy.recur,10th District (Al Hay Al Asher) - 6th of October,,29.9643200718951,30.915599878378,,,,
gilding.toggle.tiles,11th District (Hay Al Hadi Ashr) - 6th of October,,29.9628099999993,30.9017200000002,,,,
invested.summaries.cropping,11th District (Hay Al Hadi Ashr) - Sheikh Zayed,,30.0435946553939,30.9685673805926,,,,
pace.guru.pegs,11th District (Hay Al Hadi Ashr) Exit - Sheikh Zayed,,30.0490542061974,30.9769311523627,,,,
pouting.instructs.outings,8th District (Hay Al Thamen) - 6th of October,,29.9748097715629,30.9317397148578,,,,
fluffed.signified.dreams,Al Hossary Square,,29.972037872096,30.9439474907331,,,,
advising.sideburns.blur,Al Hossary,,29.973634810192,30.9440320457666,,,,
curtains.snores.stiffly,Al Hossary Station,,29.9689011883023,30.9490322758891,,,,
darts.caps.cabbages,Al Hossary Station,,29.9712124234396,30.9463386327783,,,,
instant.submerge.accordion,Al Hossary,,29.9734898995038,30.9438000931654,,,,
stability.sneezed.extra,Al Hossary Square,,29.9719278684477,30.9440716778536,,,,
haircuts.satin.fools,Al Matbaa,,29.9737719306193,31.2471611485975,,,,
frocks.advancing.dignity,1st Settlement (Tagamoa Awwal),,30.0645680703631,31.4491700747501,,,,
sprinkler.displays.boost,Giza Square,,30.0161698408432,31.2115695850946,,,,
clogging.plots.quirky,Hamada Emam - Industrial Zone 2,,29.909420025039,30.8944699764756,,,,
depths.career.iteration,Haram Marioteya,,29.989746838402,31.1494126548221,,,,
remarks.scouting.forehand,Haram Marioteya,,29.9899100031506,31.1493597515656,,,,
hillsides.defeat.caravans,Haram Mashaal,,29.987797087682,31.1437503781223,,,,
iterative.sloping.down,10th District (Al Hay Al Asher) - Nasr City,,30.0489101735107,31.379039740357,,,,
frozen.cross.clenching,Maahad - 5th Settlement,,29.9933080736892,31.4345087947993,,,,
beaters.since.behalf,Kattameya,,29.9749891511578,31.3948998856308,,,,
tens.saturate.sharper,Kattameya,,29.9748705300906,31.3948905685086,,,,
composts.waving.unclaimed,Kattameya,,29.9747694312716,31.3950092392239,,,,
uppermost.dripped.limes,Kattameya Church,,29.9822092746217,31.4168600275311,,,,
crowbar.engineers.narrate,Kattameya Church,,29.982211547934,31.4167701375537,,,,
list.zoos.define,Laylat Al Qadr,,29.9466089000362,30.9048050445988,,,,
ideals.increment.rush,Laylat Al Qadr,,29.9463029898601,30.9042207815658,,,,
attending.dispose.chucks,Laylat Al Qadr,,29.9464279392006,30.9048771451433,,,,
darts.funds.delays,Laylat Al Qadr,,29.9460660165417,30.9043276892697,,,,
imitate.socialite.receiving,Al Mahkama - New Cairo,,30.0043762163161,31.4257488174185,,,,
return.downhill.inhabited,Mamaleek,,30.0096798386892,31.2260197211973,,,,
scanty.thinking.reception,Al Manial,,30.0282703857408,31.2242392490937,,,,
likely.bookshop.friend,Al Manial,,30.0283780753934,31.2242382995907,,,,
readjust.coast.nips,Mashaal Smart Village (Al Qarya Al Zakeya),,29.9920161421372,31.1300706879152,,,,
chosen.vocab.super,Sphinx Airport,,30.078079995361,30.9181700218496,,,,
corrode.leap.before,Sphinx Airport,,30.0772255093664,30.9176980814156,,,,
albums.protect.pleaser,Lebanon Square (Medan Lebnan),,30.0594651,31.1933235,,,,
melons.kilt.without,Lebanon Square (Medan Lebnan),,30.0598974389449,31.1926574666171,,,,
motion.utter.beaker,Al Mehwar Desert Road,,30.0480031469004,31.0526960891988,,,,
treble.ascendant.drummers,Al Mehwar Desert Road,,30.0471629781919,31.0516223009881,,,,
torn.refilled.hulk,Zahraa Metro Station,,29.9950975,31.2312493,,,,
realm.studio.works,Zahraa Metro Station,,29.9950460423207,31.23118568693,,,,
skipped.file.commit,Moneeb,,29.9851809771853,31.2136696320902,,,,
fight.taster.rehearsed,Moneeb,,29.9805574126609,31.2128969366117,,,,
names.presides.marked,Moneeb,,29.9879160864651,31.2147478576687,,,,
geologist.usual.debating,Al Mostaqbal Entrance - Dolce,,29.9331289602704,30.9206700688239,,,,
photos.convinces.grin,New Marg,,30.1629694061815,31.3389902924034,,,,
skidding.kitchen.banquets,Al Remaya Square,,29.9909376,31.1268193,,,,
blotting.grumbles.rising,Saqr Quraish,,29.9866241331743,31.2888076349581,,,,
dolphin.best.disbelief,Saqr Quraish,,29.9865074434213,31.2884130878824,,,,
table.inherits.rationing,Salam Nahda,,30.1555046472101,31.4094517922161,,,,
fine.sleep.initiates,Zahraa Madinet Nasr,,30.0546790050254,31.4130089114005,,,,
wasps.fork.contact,Zahraa Madinet Nasr,,30.0509568610895,31.4061567374602,,,,
thus.inversely.heap,Police Academy - North,,30.0534397163979,31.4133961233609,,,,
debating.finishes.wager,Al Shorouq Academy (Dorra),,30.1190585349726,31.6044315194532,,,,
multiples.materials.feasting,Al Shorouq Academy (Dorra),,30.1191283889577,31.604668321091,,,,
yappy.chickens.political,Carrefour - Al Shorouq,,30.1731877405928,31.5920296775097,,,,
structure.winded.mindset,Carrefour - Al Shorouq,,30.1732192345903,31.5922122768589,,,,
meaty.costumed.nasal,Carrefour - Al Shorouq,,30.1733338561638,31.5928248453742,,,,
glimmers.than.rectangular,Al Shorouq Water Station,,30.1615708129531,31.6215359358878,,,,
acre.vaccines.generally,Al Shorouq Water Station,,30.1614726389313,31.6216740742941,,,,
steepest.forwarded.treetop,City Mall - Al Shorouq,,30.1776321924524,31.6001844867021,,,,
waxes.replenish.alarming,City Mall - Al Shorouq,,30.1777488628097,31.6001270027823,,,,
excuse.drumbeat.protester,Paradise Al Shorouq Compound,,30.1526538385553,31.6597780161692,,,,
dignitary.makeovers.stump,Paradise Al Shorouq Compound,,30.1526771632384,31.6599138300822,,,,
universally.forum.dusters,May Fair Village - Al Shorouq,,30.1328626932965,31.6012979256086,,,,
shampoos.draw.snail,May Fair Village - Al Shorouq,,30.1328911067757,31.6015269795207,,,,
washed.delays.rich,Al Hegaz (Obour Police Station) - Obour,,30.2355974430245,31.4711494709353,,,,
wells.match.renewals,Rawda Mosque - Obour,,30.2420637,31.4814687,,,,
breathing.besotted.upward,Shabab Station - Misr Petroleum - Obour,,30.2730466,31.4846255,,,,
duplicate.shovels.mute,Obour,,30.2709,31.4881,,,,
spin.nametag.vitals,2nd District Entrance - Obour,,30.249623892552,31.4686738924854,,,,
dominated.unilateral.jabbing,Hyper One - 10th of Ramadan,,30.244650088925,31.7254956876465,,,,
pubs.dangled.unscrew,Hyper One - 10th of Ramadan,,30.2445082475637,31.7256605361806,,,,
reminisce.unvarying.unravel,10th of Ramadan City Entrance,,30.2646133931908,31.7554317856662,,,,
collaboration.tower.ashy,Al Ismailiya Stop - 10th of Ramadan,,30.2650514904999,31.7536984575174,,,,
settle.light.compelled,10th of Ramadan (Asher Men Ramadan) City,,30.2951481,31.7437644,,,,
reef.change.foot,Al Tawheed Wal Nour - 10th of Ramadan,,30.2802136319832,31.7488943996286,,,,
cadet.view.gently,Al Tawheed Wal Nour - 10th of Ramadan,,30.2802644187928,31.7491195400749,,,,
event.caller.printouts,Ramses,,30.0617707292468,31.2459189012115,0,,,
pleaser.noise.idea,Moneeb,,29.9880104426077,31.2146186135405,,,,
glance.headstone.flexed,10th of Ramadan (Asher Men Ramadan) Station,,30.1536587000841,31.410820380734,,,,
reclaimed.spirits.gathers,Al Mazallat Metro Station,,30.10376,31.24544,,,,
mule.achieving.subplot,Alf Masnaa,,29.9753399909551,31.4801098919235,,,,
snoring.quietest.immune,Union Housing Al Nasr - Kattameya,Union Housing Nasr Eastbound,29.9742297787579,31.407911616608,,,,
gateway.crouching.boil,Union Housing Al Nasr - Kattameya,Union Housing Nasr Westbound,29.9743194656269,31.407917688592,,,,
viewer.outdone.range,Golf Square - 5th Settlement,,29.99897,31.40597,,,,
winning.with.lifetimes,Tolip Plaza,Tolip Plaza Eastbound,30.02536,31.46561,,,,
driving.snowy.centrally,Tolip Plaza - 5th Settlement,Tulip Plaza Westbound,30.0256186138018,31.4656059488355,,,,
stickler.alcove.lorry,Waterway Compound,Waterway Northbound,30.0413542136503,31.47512,,,,
storyline.shifts.gallons,Waterway Compound,Waterway Southbound,30.0413524392049,31.4748078526811,,,,
thin.baguette.cone,Future University in Egypt (FUE),FUE Westbound,30.0255342633667,31.4910867009423,,,,
desk.digests.panels,Nissan - Kattameya,Nissan New Cairo Service Road,29.9934282170112,31.3842319861,,,,
regress.riding.rural,Nissan - Kattameya,Nissan New Cairo Ring Road,29.9935995693538,31.3841117161005,,,,
global.cherry.evaporate,Green Hills Club,Green Hills Club Westbound,30.1634187342217,31.6342060089394,,,,
pretty.singing.relocated,Green Hills Club,Green Hills Club Eastbound,30.1633132006254,31.6342550111459,,,,
plantings.goodbye.gathers,Waha Garage - 10th District - Nasr City,,30.0403790174099,31.3779838202731,,,,
workflow.much.mixed,Free Zone - Nasr City,Free Zone Eastbound,30.0350052378835,31.3471339057505,,,,
stove.moon.vessel,Free Zone - Nasr City,Free Zone Westbound,30.03515,31.34713,,,,
incensed.slimming.prices,Ministry Of Higher Education,,30.03796,31.34058,,,,
enormous.trumped.cabbages,Doctors Tower - Nasr City,Doctors Tower Westbound,30.0553505082427,31.3521790229793,,,,
wipes.outline.twinkling,Doctors Tower - Nasr City,Doctors Tower Eastbound,30.0552245890147,31.3521967174855,,,,
presented.scooter.bottom,Rahma Mosque - Ahmed Zomor,Rahma Mosque Westbound,30.0532635884062,31.3327246739569,,,,
rainwater.decanter.seashell,Rahma Mosque - Ahmed Zomor,Rahma Mosque Eastbound,30.0530512,31.3327475,,,,
ribcage.skate.flown,Mobil Hassan Al Sherif - Nasr City,,30.0516857382558,31.3570401132366,,,,
chemistry.manicured.rebounds,Mobil Hassan Al Sherif - Nasr City,,30.0516977203299,31.3568111184718,,,,
triangle.connected.books,Al Shabab Square - 1st Settlement,Shabab Square 3 Oclock,30.05299,31.46214,,,,
dined.informs.recruiter,Al Shabab Square - 1st Settlement,Shabab Square 9 Oclock,30.0533925,31.4607648,,,,
clogging.became.megawatt,Ahmed Galal Military Passage,Ahmed Galal Northbound,30.1412584319428,31.4369424178487,,,,
pixel.embellish.mango,Ahmed Galal Military Passage,Ahmed Galal ٍSouthbound,30.1412157363301,31.436792272721,,,,
kinds.enabling.consoles,North Cairo Electricity Co - Al Helmeya,North Cairo Electricity Co - El Helmeya Eastbound,30.1110993,31.3180691,,,,
patching.again.sheets,North Cairo Electricity Co - Al Helmeya,North Cairo Electricity Co - El Helmeya Westbound,30.1112903025226,31.3182161812151,,,,
commended.guesswork.pigs,Matareya Square,,30.11512,31.30646,,,,
bookings.deposits.skill,Matareya Square,,30.11534,31.30657,,,,
isolating.forge.variances,Matareya Educational Hospital,Matareya Educational Hospital Southbound,30.1181655702001,31.3040621423497,,,,
pounces.stapled.toned,Matareya Educational Hospital,Matareya Educational Hospital Northbound,30.1182402804455,31.304189786661,,,,
kicks.stowing.oaks,Misr Al Gadeeda Military Hospital,Misr Al Gadida Military Hospital Southbound,30.1134377706151,31.3326715163734,,,,
struts.butlers.regaining,Misr Al Gadeeda Military Hospital,Misr Al Gadida Military Hospital Northbound,30.11325,31.33296,,,,
detained.scowls.dentistry,Al Amir Steps - Ring Road,,30.1634187436789,31.3185503127933,,,,
employer.mega.slicing,Al Amir Steps - Ring Road,,30.1636133112595,31.3185580847213,,,,
populate.loom.sulked,Al Moassasa Steps - Ring Road,,30.1669147615819,31.3716707466482,,,,
contained.response.collected,Al Moassasa Steps - Ring Road,,30.166730415422,31.3716789521954,,,,
incisions.displays.craftsman,Waha Hotel - Alexandria Desert Road,Waha Hotel Southbound,30.0134683303956,31.1020784362282,,,,
swatting.editor.tradition,Waha Hotel - Alexandria Desert Road,Waha Hotel Northbound,30.01350771816,31.1021698659542,,,,
radiating.dictation.boggles,Al Waha Compound - Al Shorouq,,30.1435713855777,31.6618643902866,,,,
crafts.sculpting.cigar,Al Waha Compound - Al Shorouq,,30.1435875763652,31.6620071587374,,,,
planet.visitor.promising,Dar Misr Square - Al Shorouq,Dar Misr Square Westbound,30.1644967474676,31.6403657989712,,,,
defining.subsystem.weaned,Dar Misr Square - Al Shorouq,Dar Misr Square Eastbound,30.1643836515033,31.6404148952707,,,,
grand.delivers.inversely,MIU - Obour,MIU Obour Westbound,30.1662666279531,31.4910966069065,,,,
slumped.flinches.regard,MIU - Obour,MIU Obour Eastbound,30.1662032944148,31.4923126400884,,,,
stylist.airstrip.invented,Kempinski Hotel - Ring Road,,30.060691834471,31.4178892579194,,,,
bitters.shelving.plugged,Kempinski Hotel - Ring Road,,30.0609195410199,31.4174013049322,,,,
promises.twit.vampire,Kempinski Hotel - Ring Road,,30.0609957242937,31.417239662881,,,,
accompany.bath.figs,Mobil Mostafa Kamel Axis - 1st Settlement,Mobil - Mostafa Kamel Axis Northbound,30.05896,31.4437,,,,
plunger.ecologist.spelled,Mobil Mostafa Kamel Axis - 1st Settlement,Mobil - Mostafa Kamel Axis Southbound,30.0589935093637,31.4433759973868,,,,
domain.shots.sprays,Arkadia Mall,Arkadia Mall Southbound,30.0698862189573,31.2268128598906,,,,
hotspot.overused.snacks,Nasser Institue For Research - Al Khalafawy,Nasser Institue for Research Southbound,30.0970760954523,31.2381113120341,,,,
tapers.sinkhole.riddle,Nefertari International School,Nefertari International School 'Westbound',30.1542116445477,31.4434116621734,,,,
emerge.heartburn.teachers,Nefertari International School,Nefertari International School 'Eastbound',30.1540170878465,31.4434748977149,,,,
overpaid.shaky.rehearsed,Al Hennawy Furniture - Airport Road,El-Hennawy Furniture 'Westbound',30.124462162636,31.3764140261391,,,,
filed.when.mills,Al Hennawy Furniture - Airport Road,El-Hennawy Furniture 'Eastbound',30.124336749068,31.3765639706876,,,,
unafraid.commit.agent,Cottonil Factory - Gesr Al Suez,Badr Park 'Eastbound',30.1305803290816,31.3721828677038,,,,
impeached.lunching.decreased,Om Hassan Restaurant - Abbas Al Akkad,Om Hassan Restaurant - Abbas Akkad 'Northbound',30.0617886151909,31.3375049845767,,,,
aware.mailboxes.importers,Banque Misr - Abbas Al Akkad,Abbas Akkad 'Southbound',30.058451141413,31.3376453377331,,,,
producing.garage.sketching,CAPMAS,CAPMAS 'Eastbound',30.0793968539859,31.3153587578708,,,,
feathers.piglets.full,Sonesta Hotel - Salah Salem,Sonesta Hotel - Salah Salem 'Southbound',30.07878,31.31856,,,,
paving.eyeliner.stag,Audi Bank - Salah Salem,Ouda Bank - Salah Salem 'westbound',30.0766997318762,31.309805577876,,,,
hurt.riverbed.crab,Panorama October,Panorama October 'Eastbound',30.07416,31.30392,,,,
spires.restrict.foot,Nasr Al Islam Mosque - Al Nozha Street,Nasr El Islam Mosque 'Northbound',30.09062,31.34181,,,,
superbly.hooked.thunder,Al Tawheed Wal Nour - Al Nozha Street - Heliopolis,El Tawheed w El Noor - Nasr City 'Southbound',30.090425663939,31.3414100386299,,,,
funnels.caressing.shape,Al Orouba Tunnel,El Orouba Tunnel 'Northbound',30.0858367629767,31.3230054267183,,,,
crows.crunchy.manifests,Koleyet Al Banat Metro Station,Koleyet Al Banat Metro Station 'southbound',30.083957418627,31.3285372472876,,,,
touched.clef.nooks,Girls' College - Ain Shams University,Girls' College 'Southbound',30.08103,31.32705,,,,
zooms.mini.weeps,Girls' College - Ain Shams University,Girls' College 'Northbound',30.0809380127658,31.3273009504288,,,,
monk.covenants.jetting,Al Kersh Cars - Heliopolis,El Kersh Cars 'eastbound',30.0842083389234,31.3256749765217,,,,
replaying.invested.securing,Al Nahyan Hospital - Sheikh Zayed,El Sheikh Zayed Al Nahyan Hospital 'northbound',30.05126,31.28842,,,,
relatives.snaps.headline,Al Nahyan Hospital - Sheikh Zayed,El Sheikh Zayed Al Nahyan Hospital 'southbound',30.0514094199542,31.2882949489565,,,,
repaying.folds.shape,Magra Al Oyoun - Salah Salem,Magra Al Euon Eastbound',30.01822,31.25174,,,,
president.smokers.enacted,Magra Al Oyoun - Salah Salem,Magra Al Euon Westbound',30.0184291836369,31.2517431077895,,,,
cassettes.hoping.tortoises,Public Taxes Mission - Nasr City,Public Taxes Mission 'Southbound',30.05938,31.34543,,,,
partner.soils.spearing,Public Taxes Mission - Nasr City,Public Taxes Mission 'Northbound',30.0594054408071,31.3456206720723,,,,
jelly.amps.elbowing,Al Wafaa Wal Amal City,Al Wafaa Wal Amal City 'Southbound',30.0382488405121,31.3552284483809,,,,
dormant.condiment.norms,Nasr City Towers,Nasr City towers 'Northbound',30.0316004881321,31.3545988110165,,,,
outright.daunted.coats,Nasr City Towers,Nasr City towers 'Southbound',30.0316200185995,31.3544244465111,,,,
dislodge.tearfully.postcard,Nour Al Islam Mosque Steps - Ring Road,El Safa W El Marwa Mosque steps 'Westbound',29.9927279315731,31.2466387298875,,,,
caressing.insiders.clings,Al Safa Wal Marwa Mosque Steps - Ring Road,El Safa W El Marwa Mosque steps 'Eastbound',29.9925169981355,31.2405775557132,,,,
press.lifeboats.cooks,Ezbet Kheirallah Steps 1 - Ring Road,Ezzbet Khayr Allah 'Eastbound',29.9926689299688,31.2437159722126,,,,
sprinkler.tablets.plotting,Ezbet Kheirallah Steps 1 - Ring Road,Ezzbet Khayr Allah Westbound',29.9928464994181,31.2437159278414,,,,
shrugging.learns.solo,Maadi Corniche Exit - Ring Road,Maadi Corniche Exit 'Eastbound',29.98959,31.22779,,,,
zaps.debt.sideburns,Maadi Corniche Exit - Ring Road,Maadi Corniche Exit 'Westbound',29.9897197954555,31.2275803128313,,,,
yachting.crew.cashew,Misr Al Wosta Electricity Company - Al Bahr Al Aazam,Misr Al Wosta Electricity Company 'Northbound',29.9941238788481,31.2153587259208,,,,
keener.imperious.increased,The Platform Maadi,The Platform Maadi 'Southbound',29.9743575079579,31.2347684837335,,,,
system.tumblers.slot,The Platform Maadi,The Platform Maadi 'Northbound',29.97439,31.23488,,,,
youthful.chess.bound,Ezbet Kheirallah Steps 3 - Ring Road,Ezzbet Khayr Allah steps 'Eastbound',29.9897691494896,31.2606970102088,,,,
catchers.losses.school,Ezbet Kheirallah Steps 3 - Ring Road,Ezzbet Khayr Allah steps 'Westbound',29.9903194609636,31.2578877343873,,,,
glue.crossword.extremely,Tora Steps - Autostrad,Tora Steps Autostrad 'Southbound',29.9515761163898,31.28715777591,,,,
asserts.sings.shame,Tora Steps - Autostrad,Tora Steps Autostrad 'Northbound',29.95158,31.28733,,,,
squirted.flaked.shakes,Al Dawagen - Maadi,El Dawajen - Maadi 'Southbound',29.87965,31.28931,,,,
cookers.dusts.attitudes,Icon For Construction And Development,ICON for Construction and Development 'Southbound',29.8938085935879,31.315549510958,,,,
tanks.beats.deranged,Icon For Construction And Development,ICON for Construction and Development 'Northbound',29.8937106072914,31.3156773616251,,,,
fights.inkjet.candy,Wax Museum - Helwan,Wax Museum in Helwan 'Southbound',29.85955,31.32625,,,,
fortunate.coupler.novels,Wax Museum - Helwan,Wax Museum in Helwan 'Northbound',29.86002,31.32648,,,,
saddens.conveying.surveyed,Al Maasara For Engineering Industries,El Maasara for Engineering Industries 'Southbound',29.9057537008225,31.2883644452302,,,,
grafted.surprise.unfit,Cairo Economic Court - Ring Road,Cairo Economic Court 'Eastbound',29.9879881423346,31.3026608147143,,,,
oaks.amplifier.blatantly,Masaken Al Zobbat - 10th District - Nasr City,Masaken El Dobat - Nasr City 'Eastbound',30.0384748572478,31.3947330898742,,,,
learning.gears.overjoyed,Triumph Hotel,Triumph Hotel 'Eastbound',30.0866522191394,31.3059710679515,,,,
stumble.curl.bends,Armed Forces College Of Medicine,Armed Forces College of Medicine 'Westbound',30.0868361923991,31.3036469441814,,,,
tangling.rejoins.cutlets,Manshiyat Al Bakry General Hospital,Mansheyet El Bakry General Hospital 'Eastbound',30.09249,31.30709,,,,
uppermost.knots.likes,Al Tawheed Wal Nour - Al Waili,El Tawheed W El Nour - Al Waili 'Northbound',30.0945,31.28897,,,,
transfers.blurts.talkative,Al Tawheed Mosque - Al Zaytoun,El Tawheed Mosque - Az Zaytoun 'Northbound',30.1001796026141,31.2906145229422,,,,
hospitals.shaves.material,North Cairo Electric Station,North Cairo Electric Station 'Eastbound',30.1061477012643,31.2697170596887,,,,
jumpy.slyly.petty,Magd Al Islam Hospital,Magd El Islam Hospital 'Westbound',30.10284,31.25568,,,,
buggy.strategy.vocab,Faculty of Agriculture - Ain Shams University,Faculty Of Agriculture - Ain Shams University 'Southbound',30.1119740125061,31.2481580076426,,,,
factory.drama.trappings,Faculty of Agriculture - Ain Shams University,Faculty Of Agriculture - Ain Shams University 'Northbound',30.1118987319787,31.2483255001159,,,,
list.limiting.gossiped,Shubra Al Kheima Power Plant,Shoubra El Khiema Power Plant 'Northbound',30.11446,31.24194,,,,
richer.treatment.vowed,Oriental Weavers - Shubra Al Kheima,,30.1220996282706,31.2502629738349,,,,
joined.walks.verb,Social Insurance Bureau - Shubra Al Kheima,Social Insurance Bureau - Shoubra El Khaima 2 'Northbound',30.1361329200903,31.2706348787329,,,,
revise.gets.vandalism,Shubra Al Kheima East District Presidency,Shoubra El Khaima East District Presidency 'Westbound',30.1350787754198,31.2727999096184,,,,
gives.blackmail.buyers,Experimental School - Bahteem,Experimental School Bahteem 'eastbound',30.14131,31.27523,,,,
fells.handbags.vanilla,Bahteem Specialized Hospital For Surgery,Bahteem Specialized Hospital for surgery 'Northbound',30.1447418907865,31.2778581284144,,,,
swordfish.spout.grief,Taawon Gas Station - Al Mataryaa,Tawen El Mataryaa 'Eastbound',30.12327,31.30134,,,,
disengage.jams.shampoo,Othman Steps - Ring Road,Othman 'Eastbound',30.16295,31.30988,,,,
uppermost.tent.excellent,Othman Pedestrian Bridge - Ring Road,Othman Bridge 'Westbound',30.1633065004796,31.3127002129006,,,,
bumping.friend.towels,Ezbet Al Baydaa Steps - Ring Road,Ezzbet Al Bayda steps 'Westbound',30.1631708743298,31.3270288399219,,,,
instilled.agreement.hips,Mazallat,,30.1049533071057,31.2467244463084,,,,
invoices.provider.mammals,Al Sheikh Awad Mosque - Qalyoub,,30.18129,31.20763,,,,
alongside.vibes.cabbies,Qalyub District Court,,30.1809622728963,31.2170006797622,,,,
protects.idealist.supporter,Mostorad Pedestrian Bridge,,30.1319838152921,31.2838277648663,,,,
survive.basic.crafts,Abboud,Abboud 'Westbound',30.1041469384212,31.2537450364843,,,,
aura.affirming.flotation,Abboud,Abboud 'Eastbound',30.1049132276957,31.2556700046854,,,,
cook.miles.skid,Abboud,Abboud 'Eastbound',30.1047824955076,31.2557736417513,,,,
swimsuits.sitting.surreal,Mit Nama Steps - Cairo Alexandria Agriculture Road,Mit Nama steps 'Southbound',30.1429520955944,31.2309620524837,,,,
handy.milder.ballooned,Ezbet Anwar Steps - Ring Road,,30.1501901585423,31.2650806341693,,,,
positives.gobblers.romantics,Mostorod Station,,30.1312593783208,31.2893180447731,,,,
toddler.postings.scorecard,Al Rahma Mosque - Airport Road,New Nozha 'Eastbound',30.1210145016237,31.3723669829217,,,,
kick.amber.witty,Al Rahma Mosque - Airport Road,New Nozha 'Westbound',30.1213188653217,31.3721511581608,,,,
easily.rush.look,The Continental School - Obour,The Continental School - Obour 'Northbound',30.1951959342096,31.4610121259672,,,,
concluded.nipping.audio,The Continental School - Obour,The Continental School - Obour 'Southbound',30.1950514987262,31.4608906931267,,,,
image.windmills.infants,Khadija Mosque - Obour,Khadija Mosque - Obour 'Westbound',30.2357210393768,31.4635751129367,,,,
warthog.spearing.springing,Khadija Mosque - Obour,Khadija Mosque 'Eastbound',30.2355128459511,31.4628213054625,,,,
mice.think.withdraws,Aramex - 10th of Ramadan,Aramex - 10th Ramdan 'Northbound',30.28918,31.7459,,,,
icebergs.removal.footballers,Aramex - 10th of Ramadan,Aramex - 10th Ramdan Southbound',30.2890694955895,31.745671608718,,,,
spinning.incursion.decoding,Real Estate Registration Mission - Shubra,,30.0741894424865,31.2479477675846,,,,
irritable.amaze.valued,The Good Shepherd Hospital,,30.0767369186082,31.2451972932818,,,,
behalf.impaled.fortress,Al Safwa Hospital - Shubra,,30.0936939655045,31.2453471839076,,,,
breezy.committee.hires,Al Kholafaa Al Rashdeen Mosque - Nasr City,,30.03719,31.3334886117767,,,,
villager.vies.haggle,Bavaria Egypt- Gesr Al Suez,,30.1328991064379,31.3786022627451,,,,
judges.respond.streak,Masaken Zobbat Almaza,,30.08235,31.37905,,,,
pesky.starting.clinic,Conrad Hotel,,30.06518,31.22723,,,,
inviting.loaf.workbench,Vodafone - Imbaba,,30.0720191723675,31.209401091418,,,,
strength.rescue.political,Al Aalam Specialized Hospital,,30.0662353730244,31.1917798162439,,,,
piano.threading.limp,Al Tawheed Wal Nour - Al Sayeda Zeinab,El Tawheed w El noor - AL Sayedah Zeinab 'Southbound',30.0359296375055,31.2479310986418,,,,
ratty.spin.handbook,Al Tawheed Wal Nour - Al Sayeda Zeinab,El Tawheed w El noor - AL Sayedah Zeinab 'northbound',30.0358553905608,31.2480007988895,,,,
village.towers.mingles,Sakkara Steps - Ring Road,Sakara steps 'Westbound',29.9740124923076,31.1722634495104,,,,
nicknames.ideal.treatable,Egypt Air Steps - Ring Road,,29.98265,31.17847,,,,
vaulting.speech.showrooms,Sakkara Steps - Ring Road,Sakara steps 'Eestbound',29.9739038142105,31.17251602902,,,,
grumbles.postings.employ,Egypt Air Steps - Ring Road,,29.982517936987,31.1786210250318,,,,
universally.care.landscape,Mankaraa Gate - Hadayek Al Ahram,,29.95373,31.10399,,,,
hill.cackling.mocking,Kafr Tohormos Steps - Ring Road,Kafr Tohormos steps 'Northbound',30.01822,31.16651,,,,
stuffing.flocking.then,Kafr Tohormos Steps - Ring Road,Kafr Tohormos steps 'Southbound',30.0182569562567,31.166327086877,,,,
saving.craftsmen.fights,Saft Al Laban Entrance North - Ring Road,Saft Labn entrance (north) 'eastbound',30.0338810775342,31.1653410416164,,,,
unusable.plank.premises,Saft Al Laban Steps - Ring Road,,30.0365756094994,31.1681377233328,,,,
measures.alternate.slower,Holding Co. For Water & Wastewater (HCWW),,30.0800751130793,31.2307372932871,,,,
suitable.cheeses.charts,Rod Al Farag Youth Center,,30.0753306629457,31.2282851445964,,,,
backyards.explain.aspect,Civil Registry - Imbaba,Civil Registry - Imbaba 'Southbound',30.0794918977007,31.2236397506976,,,,
slim.measuring.weeded,Civil Registry - Imbaba,Civil Registry - Imbaba 'Westbound',30.0796012737294,31.2236478690952,,,,
toothpick.ultra.covers,Manshiyat Al Bakri Steps - Ring Road,Monshaat Al Bakkari steps 'Westbound',30.0112127010455,31.1457094539658,,,,
extensive.tennis.terribly,Manshiyat Al Bakri Steps - Ring Road,Monshaat Al Bakkari steps 'Eastbound',30.0110514104466,31.145728315234,,,,
credited.fortunes.studs,Remaya Exit - Ring Road,,30.00008,31.1217146621622,,,,
spoiler.lollipop.itself,Alexandria Desert Road Exit - Ring Road,,29.9986878153446,31.1168338881665,,,,
kindest.stammer.bonkers,Gladios Garden Compound,Gladios Garden Compound 'Southbound',30.0095959910228,31.1045210259044,,,,
abstracts.refrain.straws,Gladios Garden Compound,Gladios Garden Compound 'Northbound',30.0096204105741,31.1046065221824,,,,
prove.crouching.hopes,Hazem Hassan Co. - Alexandria Desert Road,Hazem Hassan Co. 'Eastbound',30.02179,31.0721,,,,
fired.idealist.tapers,Hazem Hassan Co. - Alexandria Desert Road,Hazem Hassan Co. 'Westbound',30.0220047645522,31.0721314126866,,,,
unrated.tunnel.starlight,Dar Al Mona - Alexandria Desert Road,Dar El Mona 'Westbound',30.02459,31.08537,,,,
aliens.december.elevates,Dar Al Mona - Alexandria Desert Road,Dar El Mona 'Eastbound',30.0245060304829,31.0854168597397,,,,
vast.resorting.candidate,Mansour Chevrolet Sales Center - Alexandria Desert Road,Mansour Chevrolet Sales Center 'Westbound',30.0255040758309,31.0921202370129,,,,
things.marriage.procures,Mansour Chevrolet Sales Center - Alexandria Desert Road,Mansour Chevrolet Sales Center 'Eastbound',30.0254275248385,31.092132160705,,,,
saucepan.crabmeat.races,National Security - Alexandria Desert Road,National Security - Alexandria Desert Road 'Southbound',30.041291091249,31.0559254188973,,,,
croaking.used.campus,National Security - Alexandria Desert Road,National Security - Alexandria Desert Road 'Northbound',30.0414071816446,31.0563332004836,,,,
increment.piglets.hits,Galleria 40,,30.0154013867911,31.0015701890266,,,,
urge.trades.nudge,Galleria 40,,30.015267587562,31.0016649840496,,,,
evoke.sake.secures,Al Safwa Mall,,30.0155906428985,31.0026135366925,,,,
motoring.blanket.sues,Al Safwa Mall,,30.0154708529482,31.0026893129432,,,,
removable.trim.replays,Mubarak Educational City Entrance,,30.009817605636,30.9938048876764,,,,
tastes.rectangular.wasp,Mubarak Educational City Entrance,,30.009707119568,30.9938788264596,,,,
wriggle.motivator.showdown,Mubarak Educational City Entrance,,30.0100022315097,30.9936607959962,,,,
fussy.cheater.live,Mubarak Educational City Entrance,,30.0101591687275,30.9935330969186,,,,
noble.embellish.volume,Maahad Baneen - Sheikh Zayed,,30.0397683620114,30.9782352742717,,,,
challenge.replied.surreal,Maahad Baneen - Sheikh Zayed,,30.03973,30.97801,,,,
arrived.clashing.sleeper,Zaker Hussein - Al Tayaran,,30.04361,31.32903,,,,
lads.constrain.adopts,Tabarak Children's Hospital - Nasr City,,30.0464001458202,31.3284125887326,,,,
bakers.rooms.wobbling,Tabarak Children's Hospital - Nasr City,,30.0465943232737,31.3285684586626,,,,
clerk.bells.shocked,Al Wehda Square,,29.9836482251331,31.4184886392954,0,,,
harsh.mimics.jaundice,Ezbet Al Mofti Steps - Ring Road,,30.0884003974564,31.1953874557033,0,,,
into.alpha.postcard,Moneeb,,29.9827121434437,31.2116984701552,,,,
axed.trout.upwardly,Bab Al Shaaria Square,,30.0547714072504,31.2573830446295,0,,,
warns.nuns.polka,Al Shaheed Square - Obour,,30.2583341156785,31.4696709388142,0,,,
noises.caveman.generally,EPx Logistics For Transportation And Warehousing - Obour,,30.2606480679942,31.4723665653107,0,,,
radiating.rummage.scars,Bisco Misr - Al Zaytoun,,30.1043665869668,31.2961279492387,0,,,
movements.gilding.vintages,Wadi Degla Sporting Club - Heliopolis,,30.0950495872992,31.3828367076289,,,,
birdcage.assembles.forms,Agouza Police Hospital,,30.0523077458108,31.2167336947816,,,,
darting.kiosk.orchids,Agouza Police Hospital,,30.05233860969,31.2168992374064,,,,
pumpkin.switched.norms,Tuktuk Stop - 15th of May Bridge - Shubra Al Kheima,,30.12162,31.25039,,,,
twinkling.readers.lion,Tuktuk Stop - 15th of May Bridge - Shubra Al Kheima,,30.1216023811975,31.250539323347,,,,
veto.helper.quilt,Al Nasr Sporting Club - Heliopolis,,30.1036953771202,31.3280858148992,,,,
quintet.scatters.blur,Obour City Authority,,30.2390443670314,31.4584062546207,0,,,
cleanser.luring.fresh,Al Saff Bus Station,,29.8635658519731,31.323288356292,,,,
craftsman.lectures.heartburn,t,,29.9623248402667,31.0415793990768,,,,
loudly.running.lessening,Gas - 5th Settlement,,30.0148483,31.4161483,0,,,
cowboys.region.lordship,Haram Mashaal,,29.98763,31.14381,,,,
classed.whisker.tune,Adidas Steps - Ring Road,,29.9839930874448,31.3217307591603,0,,,
paddocks.highlight.partners,Qalyub Exit - Ring Road,,30.1491382026027,31.22851294951,,,,
card.makeovers.inefficient,Ring Road Entrance - Cairo Alexandria Agriculture Road,,30.1490495257017,31.2253354597504,,,,
jammy.general.duties,Ring Road Entrance - Cairo Alexandria Agriculture Road,,30.1494179812983,31.2334668936066,,,,
insist.shifters.equipping,Cairo Alexandria Agriculture Road Exit - Ring Road,,30.1495622517855,31.2334458930026,,,,
paddle.coherent.grinders,Arab Contractors Sporting Club - Nasr Road,,30.0556468723502,31.2946287187796,0,,,
thinnest.thickens.season,Dolce,Dolce 'Northbound',29.9356002804589,30.924504529235,,,,
introduce.riskiest.scary,Al Kahraba Street - Nasr City,,30.050222122812,31.3892345276698,0,,,
